,id,name,alias,cat,categories,geometry,longitude,latitude,address,city,state,zipcode,price,rating,reviews,closed,tr_pickup,tr_delivery,tr_restaurant_reservation,region
0,sCC7-hSdCkNPExejZT9BAQ,The MasalaWala,the-masalawala-new-york-2,Indian,"[{u'alias': u'indpak', u'title': u'Indian'}, {u'alias': u'pakistani', u'title': u'Pakistani'}]",POINT (-73.98666 40.72191),-73.98666,40.72191,"[179 Essex St, New York, NY 10002]",New York,NY,10002.0,2.0,4.5,1149,0,1,1,1,asian
1,x0k5kFArHLijdY8-NEQ7Xg,Bengal Tiger Indian Food,bengal-tiger-indian-food-new-york,Indian,"[{u'alias': u'indpak', u'title': u'Indian'}]",POINT (-73.977131 40.763167),-73.977131,40.763166999999996,"[58 W 56th St, Fl 2, New York, NY 10019]",New York,NY,10019.0,2.0,4.5,1156,0,1,1,1,asian
2,hevbe9F6sYPguKO5whPSlA,India's Curry,indias-curry-brooklyn-2,Indian,"[{u'alias': u'indpak', u'title': u'Indian'}]",POINT (-74.00312 40.60197),-74.00312,40.60197,"[1926 Bath Ave, Brooklyn, NY 11214]",Brooklyn,NY,11214.0,2.0,4.5,34,0,1,1,0,asian
3,lxNU-aBq0yPwBDx-i89ahA,Seva Indian Cuisine,seva-indian-cuisine-astoria-5,Indian,"[{u'alias': u'indpak', u'title': u'Indian'}]",POINT (-73.9191014 40.7653633),-73.9191014,40.7653633,"[3007 34th St, Astoria, NY 11103]",Astoria,NY,11103.0,2.0,4.5,1023,0,1,1,0,asian
4,_7BGw3YFNOTzP1Www3zB7g,Mughlai Grill,mughlai-grill-new-york,Indian,"[{u'alias': u'indpak', u'title': u'Indian'}]",POINT (-73.9840446 40.7210905),-73.9840446,40.7210905,"[6 Clinton St, New York, NY 10002]",New York,NY,10002.0,2.0,5.0,143,0,1,1,0,asian
5,_z2_1TE_1brlvljiGtJ4mA,Aahar Indian Cuisine,aahar-indian-cuisine-new-york,Indian,"[{u'alias': u'indpak', u'title': u'Indian'}]",POINT (-74.0081 40.71334),-74.0081,40.71334,"[10 Murray St, New York, NY 10007]",New York,NY,10007.0,2.0,4.5,200,0,1,1,1,asian
6,yLcJTiE4n_w4sZwSfMZYZA,Bombay Kabab,bombay-kabab-brooklyn,Indian,"[{u'alias': u'kebab', u'title': u'Kebab'}, {u'alias': u'indpak', u'title': u'Indian'}]",POINT (-73.97454999999999 40.67606),-73.97455,40.67606,"[54 7th Ave, Brooklyn, NY 11217]",Brooklyn,NY,11217.0,,5.0,33,0,1,1,0,asian
7,ik7LcD1fkzVbVQ6Sntd4LA,Indian Spice,indian-spice-brooklyn,Indian,"[{u'alias': u'indpak', u'title': u'Indian'}]",POINT (-73.98195600000001 40.666037),-73.98195600000001,40.666037,"[351 7th Ave, Brooklyn, NY 11215]",Brooklyn,NY,11215.0,2.0,4.0,115,0,1,1,1,asian
8,BXoW0AUDE7WZJcY-Vhqlbg,Indian Table,indian-table-brooklyn-2,Indian,"[{u'alias': u'indpak', u'title': u'Indian'}, {u'alias': u'vegetarian', u'title': u'Vegetarian'}]",POINT (-73.9941661 40.6859591),-73.9941661,40.6859591,"[234 Court St, Brooklyn, NY 11201]",Brooklyn,NY,11201.0,2.0,4.0,55,0,1,1,0,asian
9,izRJeBfDQYJmd6ibIQ6Mfg,Mughlai Indian Cuisine,mughlai-indian-cuisine-new-york-4,Indian,"[{u'alias': u'indpak', u'title': u'Indian'}]",POINT (-73.94978 40.78002),-73.94978,40.78002,"[1724 2nd Ave, New York, NY 10128]",New York,NY,10128.0,2.0,4.5,274,0,1,1,0,asian
10,WWpOWqOgS9ClYvxYVzR0lg,Tikka Indian Grill,tikka-indian-grill-brooklyn-2,Indian,"[{u'alias': u'indpak', u'title': u'Indian'}]",POINT (-73.96078 40.71441),-73.96078,40.71441,"[185 Grand St, Brooklyn, NY 11211]",Brooklyn,NY,11211.0,2.0,4.0,134,0,1,1,0,asian
11,15svH3HiVDwHMSIlRYpk6A,Ashoka Indian Restaurant,ashoka-indian-restaurant-new-york,Indian,"[{u'alias': u'indpak', u'title': u'Indian'}]",POINT (-73.97303000000001 40.78476),-73.97303000000001,40.78476,"[489 Columbus Ave, New York, NY 10024]",New York,NY,10024.0,2.0,4.5,143,0,1,1,1,asian
12,iXSuNKKUBIrBX7zUerlQDQ,Benares,benares-new-york-3,Indian,"[{u'alias': u'indpak', u'title': u'Indian'}]",POINT (-74.00924999999999 40.7141),-74.00925,40.7141,"[45 Murray Street, New York, NY 10007]",New York,NY,10007.0,2.0,4.0,359,0,1,1,1,asian
13,kS2CP48K66yL2TwIhUqy_A,Tamarind,tamarind-new-york-4,Indian,"[{u'alias': u'indpak', u'title': u'Indian'}]",POINT (-74.00891999999999 40.71909),-74.00891999999999,40.71909,"[99 Hudson St, New York, NY 10013]",New York,NY,10013.0,3.0,4.0,724,0,0,0,0,asian
14,NgD-6ogFGc_c4z5_Ur4k2g,Dhaba Indian Cuisine,dhaba-indian-cuisine-new-york,Indian,"[{u'alias': u'indpak', u'title': u'Indian'}, {u'alias': u'buffets', u'title': u'Buffets'}]",POINT (-73.98281300000001 40.742364),-73.98281300000001,40.742364,"[108 Lexington Ave, New York, NY 10016]",New York,NY,10016.0,2.0,3.5,1367,0,1,1,0,asian
15,YDtIHtfvWd4W36wq6UAjoA,Kitchen Grill Indian Restaurant,kitchen-grill-indian-restaurant-brooklyn,Indian,"[{u'alias': u'indpak', u'title': u'Indian'}]",POINT (-73.9644377 40.6827929),-73.9644377,40.6827929,"[914A Fulton St, Brooklyn, NY 11238]",Brooklyn,NY,11238.0,2.0,4.5,247,0,1,1,0,asian
16,1_pK5aQ47atF50oAKHADhA,Indian Accent,indian-accent-new-york,Indian,"[{u'alias': u'indpak', u'title': u'Indian'}]",POINT (-73.9787312885 40.7643344624),-73.9787312885,40.7643344624,"[123 W 56th St, New York, NY 10019]",New York,NY,10019.0,4.0,4.5,344,0,0,0,0,asian
17,jYhbUh1TV7SCfPxjIhVpcg,Baar Baar,baar-baar-new-york-2,Indian,"[{u'alias': u'gastropubs', u'title': u'Gastropubs'}, {u'alias': u'indpak', u'title': u'Indian'}]",POINT (-73.99160000000001 40.72448),-73.9916,40.72448,"[13 East 1st St, New York, NY 10003]",New York,NY,10003.0,3.0,4.5,84,0,0,0,1,asian
18,7DUPGtHqVZHJ3yIufbWLsg,Malai Marke Indian Cuisine,malai-marke-indian-cuisine-new-york,Indian,"[{u'alias': u'indpak', u'title': u'Indian'}]",POINT (-73.98758000000001 40.726934),-73.98758000000001,40.726934,"[318 E 6th St, New York, NY 10003]",New York,NY,10003.0,2.0,4.0,485,0,1,1,0,asian
19,AlfkFxfD-cUBGA3Eq3j0Uw,Mahal Kita,mahal-kita-brooklyn,Indian,"[{u'alias': u'indpak', u'title': u'Indian'}, {u'alias': u'desserts', u'title': u'Desserts'}, {u'alias': u'seafood', u'title': u'Seafood'}]",POINT (-73.9582807 40.7106773),-73.9582807,40.7106773,"[184 Havemeyer St, Brooklyn, NY 11211]",Brooklyn,NY,11211.0,2.0,4.5,233,0,1,1,1,asian
20,CO3lm5309asRY7XG5eXNgg,Rahi,rahi-new-york,Indian,"[{u'alias': u'indpak', u'title': u'Indian'}, {u'alias': u'breakfast_brunch', u'title': u'Breakfast & Brunch'}, {u'alias': u'cocktailbars', u'title': u'Cocktail Bars'}]",POINT (-74.0005436 40.7360271),-74.0005436,40.7360271,"[60 Greenwich Ave, New York, NY 10011]",New York,NY,10011.0,3.0,4.5,178,0,1,1,0,asian
21,Na55QhymZh3cje8Ac2vCvg,Nimbooda,nimbooda-brooklyn,Indian,"[{u'alias': u'indpak', u'title': u'Indian'}, {u'alias': u'vegetarian', u'title': u'Vegetarian'}]",POINT (-73.96419499999999 40.678245),-73.96419499999999,40.678245000000004,"[664 Washington Ave, Brooklyn, NY 11238]",Brooklyn,NY,11238.0,2.0,4.5,116,0,1,1,1,asian
22,c76v7CGWWjWj__18Mv2j5w,Ayna Agra Indian Restaurant,ayna-agra-indian-restaurant-bayside-2,Indian,"[{u'alias': u'indpak', u'title': u'Indian'}]",POINT (-73.77167970000001 40.7655067),-73.7716797,40.7655067,"[213-35 39th Ave, Bayside, NY 11361]",Bayside,NY,11361.0,2.0,4.0,298,0,0,1,0,asian
23,ZqOxAKVZEZTa4XS4zthp3Q,Bombay Grill,bombay-grill-brooklyn-5,Indian,"[{u'alias': u'indpak', u'title': u'Indian'}]",POINT (-73.95417990000001 40.6839),-73.95417990000001,40.6839,"[1176 Bedford Ave, Brooklyn, NY 11216]",Brooklyn,NY,11216.0,2.0,4.5,191,0,1,1,0,asian
24,ogEtpbCgxv38PyB3ebivqQ,Yaar Indian Restaurant,yaar-indian-restaurant-astoria,Indian,"[{u'alias': u'indpak', u'title': u'Indian'}]",POINT (-73.9120166023 40.7748030269),-73.9120166023,40.7748030269,"[22-55 31st St, Astoria, NY 11105]",Astoria,NY,11105.0,2.0,4.5,316,0,1,1,0,asian
25,HEs6llkn3wIP1ATXeIZQew,Pippali,pippali-new-york,Indian,"[{u'alias': u'indpak', u'title': u'Indian'}]",POINT (-73.98325 40.74241),-73.98325,40.74241,"[129 E 27th St, New York, NY 10016]",New York,NY,10016.0,2.0,4.0,547,0,1,1,1,asian
26,XKy4Cy4uNgO7rxhH4yFJQQ,Mughlai Indian Cuisine,mughlai-indian-cuisine-new-york-3,Indian,"[{u'alias': u'indpak', u'title': u'Indian'}]",POINT (-73.982116 40.739692),-73.982116,40.739692,"[329 3rd Ave, New York, NY 10010]",New York,NY,10010.0,2.0,4.0,267,0,1,1,0,asian
27,EKY8DwZVWpkgv6IWrepbWg,Namaste,namaste-brooklyn-2,Indian,"[{u'alias': u'indpak', u'title': u'Indian'}, {u'alias': u'halal', u'title': u'Halal'}, {u'alias': u'buffets', u'title': u'Buffets'}]",POINT (-73.97996500000001 40.676681),-73.979965,40.676681,"[195 5th Ave, Brooklyn, NY 11217]",Brooklyn,NY,11217.0,2.0,4.0,144,0,1,1,0,asian
28,kQMXY2fshQFGdP8lwDMM6g,Aaheli,aaheli-forest-hills,Indian,"[{u'alias': u'indpak', u'title': u'Indian'}, {u'alias': u'buffets', u'title': u'Buffets'}, {u'alias': u'pakistani', u'title': u'Pakistani'}]",POINT (-73.8549107 40.7212239),-73.8549107,40.7212239,"[71-51 Yellowstone Blvd, Forest Hills, NY 11375]",Forest Hills,NY,11375.0,2.0,4.0,146,0,1,1,0,asian
29,k1XZsff99d2JyX_jLwCaAA,Taj Mahal,taj-mahal-brooklyn,Indian,"[{u'alias': u'indpak', u'title': u'Indian'}]",POINT (-74.02709 40.63234),-74.02709,40.63234,"[7315 3rd Ave, Brooklyn, NY 11209]",Brooklyn,NY,11209.0,2.0,4.0,291,0,0,0,0,asian
30,2LFYEpREb8A0gr-rQSrnXA,Indian Project,indian-project-new-york,Indian,"[{u'alias': u'indpak', u'title': u'Indian'}, {u'alias': u'vegetarian', u'title': u'Vegetarian'}, {u'alias': u'buffets', u'title': u'Buffets'}]",POINT (-73.99028 40.75426),-73.99028,40.754259999999995,"[243 W 38th St, New York, NY 10018]",New York,NY,10018.0,2.0,4.0,202,0,1,1,1,asian
31,dGE1Imqoz1vdHa2cjfvO1w,Gandhi Fine Indian Cuisine,gandhi-fine-indian-cuisine-brooklyn,Indian,"[{u'alias': u'indpak', u'title': u'Indian'}]",POINT (-73.95648 40.6552099),-73.95648,40.655209899999996,"[2032 Bedford Ave, Brooklyn, NY 11226]",Brooklyn,NY,11226.0,2.0,4.0,323,0,1,1,0,asian
32,V2A9Leycc5_FEpgQC34i7Q,India Kitchen,india-kitchen-new-york,Indian,"[{u'alias': u'indpak', u'title': u'Indian'}]",POINT (-73.99471319999999 40.7558227),-73.99471319999999,40.7558227,"[493 9th Ave, New York, NY 10018]",New York,NY,10018.0,2.0,4.0,222,0,1,1,1,asian
33,HVWlYTXsR9Vx9ZoxJQa2zg,Cinnamon Garden,cinnamon-garden-new-york,Indian,"[{u'alias': u'indpak', u'title': u'Indian'}, {u'alias': u'vegetarian', u'title': u'Vegetarian'}, {u'alias': u'seafood', u'title': u'Seafood'}]",POINT (-73.9872199 40.72674),-73.9872199,40.72674,"[328 E 6th St, New York, NY 10003]",New York,NY,10003.0,2.0,5.0,20,0,1,1,1,asian
34,bgKGT3osx4KNjrdva4lYpQ,Aroma Indian Cuisine,aroma-indian-cuisine-rego-park,Indian,"[{u'alias': u'indpak', u'title': u'Indian'}]",POINT (-73.8688034 40.72352429999999),-73.8688034,40.723524299999994,"[6340 Woodhaven Blvd, Rego Park, NY 11374]",Rego Park,NY,11374.0,,4.5,43,0,1,1,0,asian
35,iXrKGRzIZK0pp31mO3nBzA,Spice & Grill,spice-and-grill-brooklyn,Indian,"[{u'alias': u'indpak', u'title': u'Indian'}, {u'alias': u'himalayan', u'title': u'Himalayan/Nepalese'}]",POINT (-73.9679912 40.69338939999999),-73.9679912,40.693389399999994,"[441 Myrtle Ave, Brooklyn, NY 11205]",Brooklyn,NY,11205.0,2.0,4.5,88,0,1,1,0,asian
36,ZikqL-flwV2XYlKtL2UfmA,Rangoli Exquisite Indian Cuisine,rangoli-exquisite-indian-cuisine-new-york,Indian,"[{u'alias': u'indpak', u'title': u'Indian'}, {u'alias': u'desserts', u'title': u'Desserts'}, {u'alias': u'seafood', u'title': u'Seafood'}]",POINT (-73.95823 40.7693),-73.95823,40.7693,"[1393 A 2nd Ave, New York, NY 10021]",New York,NY,10021.0,2.0,4.5,322,0,1,1,1,asian
37,9heTBCW1DDAKyO0GrY3Nxw,Delhi Masala,delhi-masala-new-york,Indian,"[{u'alias': u'indpak', u'title': u'Indian'}, {u'alias': u'buffets', u'title': u'Buffets'}]",POINT (-73.94856 40.80799),-73.94856,40.807990000000004,"[2077 Adam Clayton Powell Jr Blvd, New York, NY 10027]",New York,NY,10027.0,2.0,4.5,120,0,1,1,1,asian
38,dOQjniOt57mI9l9CmrCSJQ,Curry India,curry-india-new-york-2,Indian,"[{u'alias': u'indpak', u'title': u'Indian'}]",POINT (-73.98305999999999 40.76006),-73.98306,40.760059999999996,"[148 W 49th St, New York, NY 10019]",New York,NY,10019.0,2.0,4.0,35,0,1,1,0,asian
39,N7pDKAFOR1F_oCVH_Fc7Wg,Ahimsa,ahimsa-new-york,Indian,"[{u'alias': u'indpak', u'title': u'Indian'}, {u'alias': u'vegetarian', u'title': u'Vegetarian'}, {u'alias': u'kosher', u'title': u'Kosher'}]",POINT (-73.99924 40.72878),-73.99924,40.72878,"[210 Thompson St, New York, NY 10012]",New York,NY,10012.0,2.0,4.5,188,0,1,1,1,asian
40,pgGT9m03pNI15Ag2pAdY1Q,Kurry Qulture,kurry-qulture-astoria,Indian,"[{u'alias': u'indpak', u'title': u'Indian'}, {u'alias': u'wine_bars', u'title': u'Wine Bars'}, {u'alias': u'cocktailbars', u'title': u'Cocktail Bars'}]",POINT (-73.9170614376 40.7649112017),-73.9170614376,40.7649112017,"[3605 30th Ave, Astoria, NY 11103]",Astoria,NY,11103.0,2.0,4.5,235,0,1,1,1,asian
41,Pv51B3SzP4OqUbJncEeF1g,Masala Grill,masala-grill-brooklyn-3,Indian,"[{u'alias': u'indpak', u'title': u'Indian'}]",POINT (-73.981094 40.685752),-73.981094,40.685752,"[501B Atlantic Ave, Brooklyn, NY 11217]",Brooklyn,NY,11217.0,2.0,3.5,159,0,1,1,0,asian
42,HY7Hx-z5lq1vAacDwYBfoA,Diwan Grill Indian Cuisine,diwan-grill-indian-cuisine-brooklyn-2,Indian,"[{u'alias': u'indpak', u'title': u'Indian'}, {u'alias': u'desserts', u'title': u'Desserts'}, {u'alias': u'pakistani', u'title': u'Pakistani'}]",POINT (-73.956548 40.675363),-73.956548,40.675363,"[678 Franklin Ave, Brooklyn, NY 11238]",Brooklyn,NY,11238.0,2.0,4.5,46,0,1,1,0,asian
43,FvnExtQHPfz_crDCBTQ1iQ,Mint Masala,mint-masala-new-york,Indian,"[{u'alias': u'indpak', u'title': u'Indian'}, {u'alias': u'halal', u'title': u'Halal'}]",POINT (-74.00115 40.72953),-74.00115,40.72953,"[95 Macdougal St, New York, NY 10012]",New York,NY,10012.0,2.0,4.0,253,0,1,1,0,asian
44,1ckkPS7KtGSu_xXXWKcbvQ,Tandoori Masala,tandoori-masala-brooklyn,Indian,"[{u'alias': u'indpak', u'title': u'Indian'}]",POINT (-73.91184200000001 40.68402),-73.91184200000001,40.684020000000004,"[1695 Broadway, Brooklyn, NY 11207]",Brooklyn,NY,11207.0,2.0,4.0,139,0,1,1,1,asian
45,9pMhRYYgV7E9L7pzECtJKA,Drunken Munkey NYC,drunken-munkey-nyc-new-york,Indian,"[{u'alias': u'indpak', u'title': u'Indian'}, {u'alias': u'cocktailbars', u'title': u'Cocktail Bars'}]",POINT (-73.9475937 40.7808609),-73.9475937,40.7808609,"[338 E 92nd St, New York, NY 10128]",New York,NY,10128.0,2.0,4.5,686,0,1,1,1,asian
46,cJfbydHniqWsGL2VHVDHEg,Bombay Grill,bombay-grill-brooklyn-3,Indian,"[{u'alias': u'indpak', u'title': u'Indian'}, {u'alias': u'halal', u'title': u'Halal'}, {u'alias': u'beer_and_wine', u'title': u'Beer, Wine & Spirits'}]",POINT (-74.03183 40.62238),-74.03183,40.62238,"[8716 3rd Ave, Brooklyn, NY 11209]",Brooklyn,NY,11209.0,2.0,4.0,194,0,1,1,1,asian
47,NhBUzlITbu3rdjm9UEfWsw,Raj's Indian Kitchen,rajs-indian-kitchen-long-island-city,Indian,"[{u'alias': u'indpak', u'title': u'Indian'}]",POINT (-73.9393692017 40.74984359739999),-73.9393692017,40.749843597399995,"[27-18 Queens Plz S, Long Island City, NY 11101]",Long Island City,NY,11101.0,1.0,4.0,168,0,1,1,0,asian
48,sCHiXF4mZcsiY8_cBHNiqw,Indikitch,indikitch-new-york,Indian,"[{u'alias': u'indpak', u'title': u'Indian'}]",POINT (-73.99044036869999 40.7422142029),-73.99044036869999,40.7422142029,"[25 W 23rd St, New York, NY 10010]",New York,NY,10010.0,2.0,4.0,610,0,1,1,0,asian
49,lIE4KHySIenwPbta1JuM8Q,Mumbai Masala,mumbai-masala-new-york-2,Indian,"[{u'alias': u'indpak', u'title': u'Indian'}]",POINT (-73.94676 40.82695),-73.94676,40.82695,"[1768 Amsterdam Ave, New York, NY 10031]",New York,NY,10031.0,2.0,4.5,75,0,1,1,0,asian
50,Nt7vyXyaxnyXpP4NNgrSvw,Joy Indian Restaurant,joy-indian-restaurant-brooklyn,Indian,"[{u'alias': u'indpak', u'title': u'Indian'}, {u'alias': u'desserts', u'title': u'Desserts'}, {u'alias': u'soup', u'title': u'Soup'}]",POINT (-73.97342990000001 40.67883),-73.97342990000001,40.67883,"[301 Flatbush Ave, Brooklyn, NY 11217]",Brooklyn,NY,11217.0,2.0,3.5,609,0,1,1,0,asian
51,pht3NrQeuKlZpvnZ6Lbsug,RK Talkies Indian Cuisine,rk-talkies-indian-cuisine-brooklyn,Indian,"[{u'alias': u'indpak', u'title': u'Indian'}]",POINT (-73.95777 40.71147),-73.95777,40.71147,"[160 Havemeyer St, Store  3, Brooklyn, NY 11211]",Brooklyn,NY,11211.0,2.0,4.5,22,0,1,1,0,asian
52,V2oWqXcoJkgGeIPOaS9eDA,Masala Times Greenwich Village,masala-times-greenwich-village-new-york-6,Indian,"[{u'alias': u'indpak', u'title': u'Indian'}, {u'alias': u'pakistani', u'title': u'Pakistani'}]",POINT (-74.00159785149999 40.7292728224),-74.0015978515,40.7292728224,"[194 Bleecker St, New York, NY 10012]",New York,NY,10012.0,2.0,4.0,476,0,1,1,1,asian
53,JSX6Pk56w4BhgO8eSvCrKg,aRoqa,aroqa-new-york,Indian,"[{u'alias': u'indpak', u'title': u'Indian'}, {u'alias': u'cocktailbars', u'title': u'Cocktail Bars'}]",POINT (-74.00125 40.74604),-74.00125,40.74604,"[206 9th Ave, New York, NY 10011]",New York,NY,10011.0,3.0,4.0,124,0,1,1,1,asian
54,zSCp9pjEQ_M3LBuPRDo-Bg,Desi Grill,desi-grill-brooklyn-2,Indian,"[{u'alias': u'indpak', u'title': u'Indian'}]",POINT (-73.92182690000001 40.705618),-73.92182690000001,40.705618,"[46 Wyckoff Ave, Brooklyn, NY 11237]",Brooklyn,NY,11237.0,2.0,4.0,280,0,1,1,0,asian
55,XUataECnaOfdo4a87NqEFg,Samudra Vegetarian Restaurant & Chaat House,samudra-vegetarian-restaurant-and-chaat-house-jackson-heights,Indian,"[{u'alias': u'indpak', u'title': u'Indian'}, {u'alias': u'vegetarian', u'title': u'Vegetarian'}]",POINT (-73.8903772 40.7490953),-73.8903772,40.7490953,"[75-18 37th Ave, Jackson Heights, NY 11372]",Jackson Heights,NY,11372.0,1.0,4.0,430,0,1,1,0,asian
56,L9n68f-cdk7RMQvRJvC6bA,Spice Kitchen,spice-kitchen-maspeth,Indian,"[{u'alias': u'indpak', u'title': u'Indian'}, {u'alias': u'himalayan', u'title': u'Himalayan/Nepalese'}, {u'alias': u'salad', u'title': u'Salad'}]",POINT (-73.89191 40.72766),-73.89191,40.72766,"[71-04 Grand Ave, Maspeth, NY 11378]",Maspeth,NY,11378.0,2.0,4.5,124,0,1,1,0,asian
57,qhXIW0LDT4XsoN2IE6dZHg,Ahimsa Garden,ahimsa-garden-new-york-4,Indian,"[{u'alias': u'indpak', u'title': u'Indian'}, {u'alias': u'vegetarian', u'title': u'Vegetarian'}, {u'alias': u'kosher', u'title': u'Kosher'}]",POINT (-73.98319000000001 40.72849),-73.98319000000001,40.72849,"[265 E 10th St, New York, NY 10009]",New York,NY,10009.0,2.0,4.5,37,0,1,1,0,asian
58,7Dm0ramHbk77F4yD115WWg,Aaheli Indian Cuisine,aaheli-indian-cuisine-new-york,Indian,"[{u'alias': u'indpak', u'title': u'Indian'}]",POINT (-73.9867 40.76603),-73.9867,40.76603,"[826 9th Ave, New York, NY 10019]",New York,NY,10019.0,2.0,4.0,327,0,1,1,0,asian
59,RdETxi25tbocKIcMiW5TxQ,Darbar Fine Indian Cuisine,darbar-fine-indian-cuisine-new-york-2,Indian,"[{u'alias': u'indpak', u'title': u'Indian'}, {u'alias': u'buffets', u'title': u'Buffets'}, {u'alias': u'desserts', u'title': u'Desserts'}]",POINT (-73.97355 40.75348),-73.97355,40.753479999999996,"[152 E 46th St, New York, NY 10017]",New York,NY,10017.0,2.0,4.0,420,0,1,1,1,asian
60,iYh7mB7PDd5ZvZZ4lFPF1w,Anand Indian Cuisine,anand-indian-cuisine-new-york,Indian,"[{u'alias': u'indpak', u'title': u'Indian'}]",POINT (-73.95525000000001 40.77228),-73.95525,40.77228,"[304 E 78th St, New York, NY 10075]",New York,NY,10075.0,2.0,4.5,66,0,1,1,0,asian
61,wm10mMj_41_-l_gRhRH3TA,Indikitch,indikitch-new-york-2,Indian,"[{u'alias': u'indpak', u'title': u'Indian'}]",POINT (-73.98323000000001 40.765663),-73.98323,40.765663,"[940 8th Ave, New York, NY 10019]",New York,NY,10019.0,2.0,4.0,321,0,1,1,0,asian
62,maXkjUEZGWrKF7BFrrUUXQ,King of Tandoor,king-of-tandoor-brooklyn,Indian,"[{u'alias': u'indpak', u'title': u'Indian'}, {u'alias': u'halal', u'title': u'Halal'}]",POINT (-73.96084990000001 40.65889),-73.96084990000001,40.65889,"[600 Flatbush Ave, Brooklyn, NY 11225]",Brooklyn,NY,11225.0,2.0,4.0,219,0,1,1,0,asian
63,_R6EjbrynW_LFnmWoRqgww,Surya,surya-new-york-3,Indian,"[{u'alias': u'indpak', u'title': u'Indian'}, {u'alias': u'cocktailbars', u'title': u'Cocktail Bars'}, {u'alias': u'wine_bars', u'title': u'Wine Bars'}]",POINT (-73.99963000000001 40.7281),-73.99963000000001,40.7281,"[154 Bleecker St, New York, NY 10012]",New York,NY,10012.0,2.0,4.0,147,0,1,1,1,asian
64,80u4xIY1kp_25AUh9BW0Bw,Kanan Indian Restaurant,kanan-indian-restaurant-brooklyn,Indian,"[{u'alias': u'indpak', u'title': u'Indian'}, {u'alias': u'vegan', u'title': u'Vegan'}]",POINT (-73.99083741220001 40.6716593195),-73.99083741220001,40.6716593195,"[452 3rd Ave, Brooklyn, NY 11215]",Brooklyn,NY,11215.0,2.0,4.0,107,0,1,1,0,asian
65,FXDMFBM-rV2s5MHzA33d2g,Bombay Grill House,bombay-grill-house-new-york-3,Indian,"[{u'alias': u'indpak', u'title': u'Indian'}, {u'alias': u'pakistani', u'title': u'Pakistani'}, {u'alias': u'hotdogs', u'title': u'Fast Food'}]",POINT (-73.98806 40.76415),-73.98806,40.76415,"[764 9th Ave, New York, NY 10019]",New York,NY,10019.0,2.0,4.0,153,0,1,1,1,asian
66,uVRau5cd-OpqWIA-qsCiJA,All About Indian Food,all-about-indian-food-brooklyn,Indian,"[{u'alias': u'indpak', u'title': u'Indian'}]",POINT (-73.936897 40.702309),-73.936897,40.702309,"[443 Bushwick Ave, Brooklyn, NY 11206]",Brooklyn,NY,11206.0,2.0,4.0,59,0,1,1,0,asian
67,50eKjWOB-H9iuo1ocACOaQ,Imli Urban Indian Food,imli-urban-indian-food-new-york,Indian,"[{u'alias': u'indpak', u'title': u'Indian'}, {u'alias': u'tapasmallplates', u'title': u'Tapas/Small Plates'}, {u'alias': u'breakfast_brunch', u'title': u'Breakfast & Brunch'}]",POINT (-73.9601389691 40.7616660604),-73.9601389691,40.761666060399996,"[1136 1st Ave, New York, NY 10065]",New York,NY,10065.0,2.0,4.5,96,0,1,1,0,asian
68,QHZxlt8nFqycBrxxizwKmA,Taj Masala,taj-masala-brooklyn,Indian,"[{u'alias': u'indpak', u'title': u'Indian'}]",POINT (-73.929653 40.684399),-73.929653,40.684399,"[256 Malcolm X Blvd, Brooklyn, NY 11233]",Brooklyn,NY,11233.0,2.0,4.0,69,0,1,1,0,asian
69,-MXQI-AjTJViEekzs_5_8A,Corner Delhi,corner-delhi-brooklyn,Indian,"[{u'alias': u'indpak', u'title': u'Indian'}, {u'alias': u'bars', u'title': u'Bars'}]",POINT (-73.976069 40.681277),-73.976069,40.681277,"[447 Bergen St, Brooklyn, NY 11217]",Brooklyn,NY,11217.0,,4.0,17,0,0,0,0,asian
70,ar2ERFxW_GN76Xd8H0CtCQ,The Bombay Bread Bar,the-bombay-bread-bar-new-york-5,Indian,"[{u'alias': u'indpak', u'title': u'Indian'}]",POINT (-74.0031 40.72534),-74.0031,40.72534,"[195 Spring St, New York, NY 10012]",New York,NY,10012.0,,4.0,31,0,0,0,0,asian
71,7USPKYeaAfxl0Ch9j_1l7A,Moti Mahal Delux,moti-mahal-delux-new-york,Indian,"[{u'alias': u'indpak', u'title': u'Indian'}]",POINT (-73.9605 40.76213),-73.9605,40.76213,"[1149 1st Ave, New York, NY 10065]",New York,NY,10065.0,2.0,4.0,385,0,1,1,0,asian
72,yKQZqmCbk3EkGC5ajHgEGg,Amma,amma-new-york,Indian,"[{u'alias': u'indpak', u'title': u'Indian'}]",POINT (-73.96874 40.75554),-73.96874,40.75554,"[246 E 51st St, New York, NY 10022]",New York,NY,10022.0,3.0,4.0,445,0,1,1,0,asian
73,5lB2jlIeaEE-xoQ7fKygSw,Indian Masala,indian-masala-brooklyn-2,Indian,"[{u'alias': u'indpak', u'title': u'Indian'}, {u'alias': u'desserts', u'title': u'Desserts'}, {u'alias': u'seafood', u'title': u'Seafood'}]",POINT (-73.93103000000001 40.67407),-73.93103,40.67407,"[1174 St Marks Ave, Brooklyn, NY 11213]",Brooklyn,NY,11213.0,2.0,4.0,41,0,1,1,0,asian
74,sQ_L8O9WMU4apxSTVa9JKg,Agra Taj Mahal,agra-taj-mahal-brooklyn,Indian,"[{u'alias': u'indpak', u'title': u'Indian'}]",POINT (-73.95502990000001 40.7332729),-73.95502990000001,40.733272899999996,"[1005 Manhattan Ave, Brooklyn, NY 11222]",Brooklyn,NY,11222.0,2.0,3.5,132,0,1,1,0,asian
75,HsEmXckXmsRAAEVDFCGYYg,Namaste,namaste-astoria-2,Indian,"[{u'alias': u'indpak', u'title': u'Indian'}, {u'alias': u'halal', u'title': u'Halal'}, {u'alias': u'buffets', u'title': u'Buffets'}]",POINT (-73.92068 40.7668),-73.92068,40.7668,"[31-15 30th Ave, Astoria, NY 11102]",Astoria,NY,11102.0,2.0,4.0,460,0,1,1,1,asian
76,gsZUN1Vtpd3P7rdvANbrmg,Indian Kitchen,indian-kitchen-williamsburg,Indian,"[{u'alias': u'indpak', u'title': u'Indian'}]",POINT (-73.94332 40.71199),-73.94332,40.71199,"[739 Grand St, Williamsburg, NY 11211]",Williamsburg,NY,11211.0,2.0,4.0,135,0,1,1,0,asian
77,h1PXV90jW1bXIWVlKiF0NQ,DesiBowl,desibowl-long-island-city,Indian,"[{u'alias': u'indpak', u'title': u'Indian'}, {u'alias': u'mexican', u'title': u'Mexican'}]",POINT (-73.95391289140001 40.7429077653),-73.95391289140001,40.742907765300004,"[49-11 Vernon Blvd, Long Island City, NY 11101]",Long Island City,NY,11101.0,1.0,4.0,32,0,1,1,0,asian
78,zVLG_O3AQnvQ53PSJ5mTMA,Om Restaurant,om-restaurant-new-york,Indian,"[{u'alias': u'indpak', u'title': u'Indian'}]",POINT (-73.95364000000001 40.77583),-73.95364000000001,40.77583,"[1593 2nd Ave, New York, NY 10028]",New York,NY,10028.0,2.0,4.0,437,0,1,1,0,asian
79,lP8uDU4oNEkPD8-Ik-PvQQ,Awadh,awadh-new-york-3,Indian,"[{u'alias': u'indpak', u'title': u'Indian'}, {u'alias': u'halal', u'title': u'Halal'}]",POINT (-73.97071600000001 40.79583),-73.97071600000001,40.79583,"[2588 Broadway, New York, NY 10025]",New York,NY,10025.0,2.0,3.5,247,0,1,1,1,asian
80,FlwWBzM_1fzo81fRL__srw,Nasheman Grill And Restaurant,nasheman-grill-and-restaurant-brooklyn,Indian,"[{u'alias': u'indpak', u'title': u'Indian'}, {u'alias': u'pakistani', u'title': u'Pakistani'}]",POINT (-73.959411 40.579261),-73.959411,40.579260999999995,"[3149 Coney Island Ave, Brooklyn, NY 11235]",Brooklyn,NY,11235.0,1.0,4.0,49,0,1,0,0,asian
81,p-JaS3lxVQGdJp4ikjzqfg,Taste of India II,taste-of-india-ii-staten-island-2,Indian,"[{u'alias': u'indpak', u'title': u'Indian'}]",POINT (-74.11273 40.57219),-74.11273,40.57219,"[287 New Dorp Ln, Staten Island, NY 10306]",Staten Island,NY,10306.0,2.0,4.0,150,0,0,0,0,asian
82,A-ert0jDRBfku9ogyW_mEg,Spice Symphony,spice-symphony-new-york-3,Indian,"[{u'alias': u'chinese', u'title': u'Chinese'}, {u'alias': u'indpak', u'title': u'Indian'}, {u'alias': u'breakfast_brunch', u'title': u'Breakfast & Brunch'}]",POINT (-73.971534729 40.7558937073),-73.971534729,40.7558937073,"[150 E 50th St, New York, NY 10022]",New York,NY,10022.0,2.0,4.5,163,0,1,1,1,asian
83,iAW1UTfP8jL_vpwRh93VcA,Bombay Xpress,bombay-xpress-brooklyn,Indian,"[{u'alias': u'indpak', u'title': u'Indian'}]",POINT (-73.93670999999999 40.69295),-73.93670999999999,40.69295,"[964 Dekalb Ave, Brooklyn, NY 11221]",Brooklyn,NY,11221.0,2.0,4.0,57,0,1,1,0,asian
84,6NcU2JAznLr9dDHp6GgQyw,Doaba Deli,doaba-deli-new-york-2,Indian,"[{u'alias': u'indpak', u'title': u'Indian'}, {u'alias': u'vegetarian', u'title': u'Vegetarian'}]",POINT (-73.962402 40.7994),-73.962402,40.7994,"[945 Columbus Ave, New York, NY 10025]",New York,NY,10025.0,1.0,4.5,202,0,0,0,0,asian
85,m5Whyz8O8jM4DrE808h71g,Darbar Grill,darbar-grill-new-york,Indian,"[{u'alias': u'indpak', u'title': u'Indian'}, {u'alias': u'buffets', u'title': u'Buffets'}, {u'alias': u'bars', u'title': u'Bars'}]",POINT (-73.96882600000001 40.759357),-73.968826,40.759357,"[157 E 55th St, New York, NY 10022]",New York,NY,10022.0,2.0,4.0,454,0,1,1,1,asian
86,ZrdTKStTAo2pchslOev1KQ,Chennai Garden by Tiffin Wallah,chennai-garden-by-tiffin-wallah-new-york,Indian,"[{u'alias': u'indpak', u'title': u'Indian'}]",POINT (-73.98274000000001 40.74298),-73.98274,40.742979999999996,"[127 E 28th St, New York, NY 10016]",New York,NY,10016.0,2.0,4.0,661,0,1,1,0,asian
87,1KGvtMU7VBcdlvxo2brdQg,Clove Indian Restaurant & Bar,clove-indian-restaurant-and-bar-new-york,Indian,"[{u'alias': u'indpak', u'title': u'Indian'}]",POINT (-73.95068359999999 40.8212624),-73.95068359999999,40.8212624,"[1592 Amsterdam Ave, New York, NY 10031]",New York,NY,10031.0,2.0,4.0,188,0,1,1,0,asian
88,HGNqWrRYJNyhJSS8yia8HQ,Ruchi Indian Cuisine,ruchi-indian-cuisine-new-york,Indian,"[{u'alias': u'indpak', u'title': u'Indian'}]",POINT (-74.01272936779999 40.709610891),-74.01272936779999,40.709610891,"[120 Cedar St, New York, NY 10006]",New York,NY,10006.0,2.0,3.5,284,0,1,1,0,asian
89,T1CRoZ-f-hwrjdkBvt7_kg,Indian Tanpura,indian-tanpura-new-york-2,Indian,"[{u'alias': u'indpak', u'title': u'Indian'}]",POINT (-73.97468000000001 40.78869),-73.97468,40.78869,"[564 Amsterdam Ave, New York, NY 10024]",New York,NY,10024.0,2.0,4.0,115,0,1,1,0,asian
90,uucP1LoFyamFS0qDwgMXbg,Ghandi Cafe,ghandi-cafe-new-york,Indian,"[{u'alias': u'indpak', u'title': u'Indian'}, {u'alias': u'desserts', u'title': u'Desserts'}]",POINT (-74.0033 40.73194),-74.0033,40.73194,"[283 Bleecker St, New York, NY 10014]",New York,NY,10014.0,2.0,4.0,310,0,1,1,0,asian
91,oOz--_ORMzLSee92b_ksaQ,Masala Box,masala-box-bayside,Indian,"[{u'alias': u'indpak', u'title': u'Indian'}]",POINT (-73.77073 40.76245),-73.77073,40.76245,"[4202 Bell Blvd, Bayside, NY 11361]",Bayside,NY,11361.0,2.0,4.0,167,0,1,1,0,asian
92,yje3Sgcq3SnXBmNuybnQEw,Old Monk,old-monk-new-york,Indian,"[{u'alias': u'indpak', u'title': u'Indian'}]",POINT (-73.97919 40.72748),-73.97919,40.72748,"[175 Ave B, New York, NY 10009]",New York,NY,10009.0,3.0,4.0,53,0,1,1,0,asian
93,3dZsX3mqbVsLEXPwMYKPsw,Zaika New York,zaika-new-york-new-york,Indian,"[{u'alias': u'indpak', u'title': u'Indian'}]",POINT (-73.97209000000001 40.75135),-73.97209000000001,40.75135,"[230 E 44th St, Between 2/3 Avenue, New York, NY 10017]",New York,NY,10017.0,2.0,4.5,19,0,1,1,1,asian
94,8vYGvXF4OyKv2KV0-iIxrA,Tikka Indian Grill Astoria,tikka-indian-grill-astoria-astoria,Indian,"[{u'alias': u'indpak', u'title': u'Indian'}]",POINT (-73.91850500000001 40.76553070000001),-73.91850500000001,40.76553070000001,"[34-14 30th Ave, Astoria, NY 11103]",Astoria,NY,11103.0,2.0,4.5,113,0,1,1,0,asian
95,9eZrG8nANKuoyGSqdj_gew,Ashoka Grill,ashoka-grill-brooklyn-2,Indian,"[{u'alias': u'indpak', u'title': u'Indian'}]",POINT (-73.95086670000001 40.6356477),-73.9508667,40.6356477,"[1436 Flatbush Ave, Brooklyn, NY 11210]",Brooklyn,NY,11210.0,2.0,4.0,158,0,1,1,0,asian
96,7eUoHxFCZKdYkl7ONixCKA,Nepalese Indian Restaurant,nepalese-indian-restaurant-ridgewood,Indian,"[{u'alias': u'indpak', u'title': u'Indian'}, {u'alias': u'himalayan', u'title': u'Himalayan/Nepalese'}, {u'alias': u'beerbar', u'title': u'Beer Bar'}]",POINT (-73.90389300000001 40.70072279999999),-73.90389300000001,40.700722799999994,"[907 Seneca Ave, Ridgewood, NY 11385]",Ridgewood,NY,11385.0,2.0,4.0,174,0,1,1,0,asian
97,bgMbt6XbOaAu5VNXr5kCdQ,Polash,polash-new-york,Indian,"[{u'alias': u'indpak', u'title': u'Indian'}]",POINT (-73.93841500000001 40.799587),-73.938415,40.799587,"[2179 3rd Ave, New York, NY 10035]",New York,NY,10035.0,2.0,4.0,188,0,1,1,0,asian
98,QqrEF8_ZQCGi63cL10J5oA,Chola,chola-new-york-3,Indian,"[{u'alias': u'indpak', u'title': u'Indian'}]",POINT (-73.96576 40.76026),-73.96576,40.760259999999995,"[232 E 58th St, New York, NY 10022]",New York,NY,10022.0,2.0,4.0,529,0,1,1,1,asian
99,S8a--JIL9yEaU-D1yucI9Q,Haveli Restaurant,haveli-restaurant-new-york,Indian,"[{u'alias': u'indpak', u'title': u'Indian'}]",POINT (-73.988349 40.727119),-73.988349,40.727119,"[100 2nd Ave, New York, NY 10003]",New York,NY,10003.0,2.0,4.0,310,0,1,1,0,asian
100,xeIhR9gx0OsTdoQ0mmEUsA,Badshah Modern Indian,badshah-modern-indian-new-york,Indian,"[{u'alias': u'indpak', u'title': u'Indian'}, {u'alias': u'cocktailbars', u'title': u'Cocktail Bars'}]",POINT (-73.98756 40.76483),-73.98756,40.764829999999996,"[788 9th Ave, New York, NY 10019]",New York,NY,10019.0,2.0,4.0,144,0,1,1,1,asian
101,SB4t6vWpxlVQAfCQ3oC1BQ,Curry Heights,curry-heights-brooklyn,Indian,"[{u'alias': u'indpak', u'title': u'Indian'}, {u'alias': u'halal', u'title': u'Halal'}]",POINT (-73.992154 40.693685),-73.992154,40.693684999999995,"[151 Remsen St, Brooklyn, NY 11201]",Brooklyn,NY,11201.0,2.0,3.5,211,0,1,1,0,asian
102,mZALre3ahuetu5X8_uUJew,Thelewala,thelewala-new-york,Indian,"[{u'alias': u'indpak', u'title': u'Indian'}]",POINT (-74.00068 40.72963),-74.00068,40.72963,"[112 Macdougal St, New York, NY 10012]",New York,NY,10012.0,1.0,4.0,400,0,1,1,0,asian
103,_nScWpFX3M1K7s30hFEsRw,Inday,inday-new-york-2,Indian,"[{u'alias': u'indpak', u'title': u'Indian'}, {u'alias': u'salad', u'title': u'Salad'}, {u'alias': u'gluten_free', u'title': u'Gluten-Free'}]",POINT (-73.9892206 40.7434986),-73.9892206,40.7434986,"[1133 Broadway, New York, NY 10010]",New York,NY,10010.0,2.0,4.0,273,0,0,0,0,asian
104,PEEw2ip9VrmiMBP4b6op_g,Govinda's Vegetarian,govindas-vegetarian-brooklyn,Indian,"[{u'alias': u'vegetarian', u'title': u'Vegetarian'}, {u'alias': u'vegan', u'title': u'Vegan'}, {u'alias': u'indpak', u'title': u'Indian'}]",POINT (-73.982195715 40.6876177701),-73.982195715,40.687617770100005,"[305 Schermerhorn St, Brooklyn, NY 11217]",Brooklyn,NY,11217.0,1.0,4.5,144,0,0,0,0,asian
105,LWghzX6Vsw1ytEFP6lA8oA,Apna Masala Indian Cuisine,apna-masala-indian-cuisine-new-york,Indian,"[{u'alias': u'indpak', u'title': u'Indian'}]",POINT (-73.9864511164 40.7263834633),-73.9864511164,40.726383463299996,"[344 E 6th St, New York, NY 10003]",New York,NY,10003.0,2.0,4.0,171,0,1,1,0,asian
106,sMoKKcyUslHmHe0NmCYgfg,The Chinese Club,the-chinese-club-brooklyn,Indian,"[{u'alias': u'indpak', u'title': u'Indian'}, {u'alias': u'chinese', u'title': u'Chinese'}]",POINT (-73.96039 40.713844),-73.96039,40.713844,"[208 Grand St, Brooklyn, NY 11211]",Brooklyn,NY,11211.0,2.0,4.0,202,0,1,1,1,asian
107,guwS_mhhUjOT5d8sYfEluQ,Adyar Ananda Bhavan,adyar-ananda-bhavan-new-york,Indian,"[{u'alias': u'indpak', u'title': u'Indian'}, {u'alias': u'vegetarian', u'title': u'Vegetarian'}, {u'alias': u'southern', u'title': u'Southern'}]",POINT (-73.96248900000001 40.759381),-73.962489,40.759381,"[1071 1st Ave, New York, NY 10022]",New York,NY,10022.0,2.0,4.0,231,0,1,1,0,asian
108,RSSe0b5ozB5T7uxPe246KQ,Maya Restaurant & Bar,maya-restaurant-and-bar-astoria,Indian,"[{u'alias': u'indpak', u'title': u'Indian'}, {u'alias': u'himalayan', u'title': u'Himalayan/Nepalese'}]",POINT (-73.91376 40.76580999999999),-73.91376,40.765809999999995,"[25-94 Steinway St, Astoria, NY 11103]",Astoria,NY,11103.0,2.0,5.0,53,0,1,1,0,asian
109,zDiKwE9LPwWo9k2kdwMEZw,Saffron Indian Cuisine,saffron-indian-cuisine-astoria,Indian,"[{u'alias': u'indpak', u'title': u'Indian'}]",POINT (-73.915762 40.757176),-73.915762,40.757176,"[4404 Broadway, Astoria, NY 11103]",Astoria,NY,11103.0,2.0,3.5,207,0,1,1,1,asian
110,OxQ1lGq3uzl8_fgW67rXdQ,Tikka Indian Grill,tikka-indian-grill-kew-gardens,Indian,"[{u'alias': u'indpak', u'title': u'Indian'}, {u'alias': u'pakistani', u'title': u'Pakistani'}]",POINT (-73.8311437 40.7058236),-73.8311437,40.7058236,"[119-30 Metropolitan Ave, Kew Gardens, NY 11415]",Kew Gardens,NY,11415.0,2.0,4.0,116,0,1,1,0,asian
111,2-Nuy6YhQcD6GFQHS9EqSw,Chawlas 2,chawlas-2-new-york,Indian,"[{u'alias': u'indpak', u'title': u'Indian'}]",POINT (-73.98535 40.73625),-73.98535,40.73625,"[216 3rd Ave, New York, NY 10003]",New York,NY,10003.0,2.0,4.0,58,0,1,1,0,asian
112,Va_mnsEvBghHXvc7uZIWJQ,Spice Symphony,spice-symphony-new-york,Indian,"[{u'alias': u'indpak', u'title': u'Indian'}, {u'alias': u'chinese', u'title': u'Chinese'}, {u'alias': u'salad', u'title': u'Salad'}]",POINT (-73.981202 40.744722),-73.981202,40.744721999999996,"[182 Lexington Ave, New York, NY 10016]",New York,NY,10016.0,2.0,4.0,471,0,1,1,1,asian
113,iU0McmYWdsnD-NKRUZXhQQ,Sapphire Indian Restaurant,sapphire-indian-restaurant-brooklyn-7,Indian,"[{u'alias': u'indpak', u'title': u'Indian'}]",POINT (-73.95998382569999 40.690612793),-73.9599838257,40.690612793,"[435 Dekalb Ave, Brooklyn, NY 11205]",Brooklyn,NY,11205.0,2.0,3.5,30,0,1,1,0,asian
114,YMMzKiyXHhltXIqy2sMiAA,Curry & Kebab,curry-and-kebab-bronx,Indian,"[{u'alias': u'halal', u'title': u'Halal'}, {u'alias': u'indpak', u'title': u'Indian'}]",POINT (-73.879586868 40.8740694335),-73.879586868,40.8740694335,"[3111 Bainbridge Ave, Bronx, NY 10467]",Bronx,NY,10467.0,2.0,4.5,67,0,1,1,0,asian
115,Q7wFlNr4OFU0eCJXcOmopg,Bombay's Indian Restaurant,bombays-indian-restaurant-new-york,Indian,"[{u'alias': u'indpak', u'title': u'Indian'}]",POINT (-74.01109 40.70344),-74.01109,40.70344,"[60 Pearl St, New York, NY 10004]",New York,NY,10004.0,2.0,3.0,149,0,1,1,0,asian
116,dJmC6GmMgX3VLSdaLhcJdg,Tandoor Restaurant,tandoor-restaurant-rego-park-55,Indian,"[{u'alias': u'indpak', u'title': u'Indian'}, {u'alias': u'buffets', u'title': u'Buffets'}]",POINT (-73.86418929999999 40.730453),-73.86418929999999,40.730453000000004,"[9524 Queens Blvd, Rego Park, NY 11374]",Rego Park,NY,11374.0,2.0,3.5,197,0,1,1,0,asian
117,DZE4ThXa7d0kSXnR3Hb-kg,Junoon,junoon-new-york,Indian,"[{u'alias': u'indpak', u'title': u'Indian'}, {u'alias': u'desserts', u'title': u'Desserts'}, {u'alias': u'wine_bars', u'title': u'Wine Bars'}]",POINT (-73.990838 40.743193),-73.990838,40.743193,"[27 W 24th St, New York, NY 10010]",New York,NY,10010.0,3.0,3.5,1175,0,0,0,0,asian
118,BPyt7S9TdcR1u571iacg7g,The Kati Roll Company,the-kati-roll-company-new-york-5,Indian,"[{u'alias': u'indpak', u'title': u'Indian'}, {u'alias': u'halal', u'title': u'Halal'}]",POINT (-73.98458000000001 40.7528),-73.98458000000001,40.7528,"[49 W 39th St, New York, NY 10018]",New York,NY,10018.0,1.0,4.0,1282,0,1,1,0,asian
119,JCFEtB6jJXbOMJ7_ZUpD3g,Spice Grill,spice-grill-new-york-3,Indian,"[{u'alias': u'indpak', u'title': u'Indian'}, {u'alias': u'buffets', u'title': u'Buffets'}]",POINT (-73.9803848267 40.7579956055),-73.9803848267,40.7579956055,"[48 W 48th St, New York, NY 10036]",New York,NY,10036.0,2.0,3.5,91,0,1,1,0,asian
120,NVCLcLa_7LMEJipAQmNlZw,Agra Restaurant,agra-restaurant-new-york,Indian,"[{u'alias': u'indpak', u'title': u'Indian'}]",POINT (-73.9665107 40.7642247),-73.9665107,40.7642247,"[807 Lexington Ave, Fl 2, New York, NY 10021]",New York,NY,10021.0,2.0,4.0,158,0,1,1,0,asian
121,IDEq8v88W58i2QZuNFjl-w,Bombay Kitchen,bombay-kitchen-brooklyn,Indian,"[{u'alias': u'indpak', u'title': u'Indian'}]",POINT (-73.90955600000001 40.694066),-73.90955600000001,40.694066,"[733 Knickerbocker Ave, Brooklyn, NY 11221]",Brooklyn,NY,11221.0,2.0,3.5,147,0,1,1,0,asian
122,3N3XesISm5tg_nsjL10eFA,Chapati House,chapati-house-new-york-2,Indian,"[{u'alias': u'indpak', u'title': u'Indian'}]",POINT (-73.95959000000001 40.814613),-73.95959,40.814613,"[3153 Broadway, New York, NY 10027]",New York,NY,10027.0,1.0,4.0,180,0,1,1,0,asian
123,m9Q9x-Hcxp24gZCaTTJY-A,Sahib,sahib-new-york,Indian,"[{u'alias': u'indpak', u'title': u'Indian'}]",POINT (-73.9830099 40.74232),-73.9830099,40.74232,"[104 Lexington Ave, New York, NY 10016]",New York,NY,10016.0,2.0,4.0,100,0,1,1,0,asian
124,z2VXX7wGl8XZ6_oo9W3koA,Patiala Indian Grill,patiala-indian-grill-new-york,Indian,"[{u'alias': u'indpak', u'title': u'Indian'}]",POINT (-73.99608979999999 40.7533149),-73.9960898,40.7533149,"[371 W 34th St, New York, NY 10001]",New York,NY,10001.0,1.0,4.0,173,0,1,1,0,asian
125,o21M4dKM4KQbzGVrlq_3Iw,Pearl Indian Food,pearl-indian-food-brooklyn,Indian,"[{u'alias': u'indpak', u'title': u'Indian'}]",POINT (-73.957329 40.673183),-73.957329,40.673183,"[738 Franklin Ave, Brooklyn, NY 11238]",Brooklyn,NY,11238.0,2.0,3.5,126,0,1,1,0,asian
126,Z2qZSs6oVJQFSc44tytAHg,India House Restaurant,india-house-restaurant-brooklyn-4,Indian,"[{u'alias': u'indpak', u'title': u'Indian'}, {u'alias': u'halal', u'title': u'Halal'}, {u'alias': u'vegetarian', u'title': u'Vegetarian'}]",POINT (-73.9496699721 40.6787193651),-73.9496699721,40.6787193651,"[586 Nostrand Ave, Brooklyn, NY 11216]",Brooklyn,NY,11216.0,2.0,4.0,111,0,1,1,1,asian
127,_Hig4rf_SEAhq13eBdJ4CQ,Kismat Indian Restaurant,kismat-indian-restaurant-new-york-2,Indian,"[{u'alias': u'indpak', u'title': u'Indian'}]",POINT (-73.93701840999999 40.8552891008),-73.93701841,40.8552891008,"[603 Fort Washington Ave, New York, NY 10040]",New York,NY,10040.0,2.0,3.5,302,0,1,1,0,asian
128,yV7brOiTLS3Lmwws8e3nXA,Dil-e Punjab Deli,dil-e-punjab-deli-new-york,Indian,"[{u'alias': u'indpak', u'title': u'Indian'}, {u'alias': u'vegetarian', u'title': u'Vegetarian'}, {u'alias': u'pakistani', u'title': u'Pakistani'}]",POINT (-74.00206 40.74482),-74.00206,40.744820000000004,"[170 9th Ave, New York, NY 10011]",New York,NY,10011.0,1.0,4.5,156,0,1,1,0,asian
129,ZrhOYpCBzHYxM6jPQLNerQ,Indian Xpress,indian-xpress-staten-island-14,Indian,"[{u'alias': u'indpak', u'title': u'Indian'}]",POINT (-74.0793587 40.6383408),-74.0793587,40.6383408,"[19 Corson Ave, Staten Island, NY 10301]",Staten Island,NY,10301.0,2.0,3.5,32,0,1,1,0,asian
130,MP8Ey2ezsDCSowR-1X6hKg,Dosa Royale,dosa-royale-brooklyn,Indian,"[{u'alias': u'indpak', u'title': u'Indian'}, {u'alias': u'vegetarian', u'title': u'Vegetarian'}, {u'alias': u'vegan', u'title': u'Vegan'}]",POINT (-73.96863399999999 40.689244),-73.968634,40.689244,"[258 Dekalb Ave, Brooklyn, NY 11205]",Brooklyn,NY,11205.0,2.0,3.5,180,0,1,1,0,asian
131,CzcZsX0Mvm5G8LOlKRr0WA,Dhaulagiri Kitchen,dhaulagiri-kitchen-new-york-4,Indian,"[{u'alias': u'himalayan', u'title': u'Himalayan/Nepalese'}, {u'alias': u'indpak', u'title': u'Indian'}]",POINT (-73.98255888369999 40.7429351995),-73.9825588837,40.742935199499996,"[124 Lexington Ave, New York, NY 10016]",New York,NY,10016.0,2.0,4.0,136,0,1,1,0,asian
132,G4Y3yF4UfcCNSj0JFQQVDw,A Saffron Thread Fresh Indian,a-saffron-thread-fresh-indian-new-york,Indian,"[{u'alias': u'indpak', u'title': u'Indian'}, {u'alias': u'vegetarian', u'title': u'Vegetarian'}, {u'alias': u'gluten_free', u'title': u'Gluten-Free'}]",POINT (-74.00774 40.71461),-74.00774,40.71461,"[98 Chambers St, New York, NY 10007]",New York,NY,10007.0,2.0,3.5,93,0,1,1,0,asian
133,5Uxgo1hIzZNPPGmh40AGWQ,Rajdhani Indian Restaurant,rajdhani-indian-restaurant-queens-village,Indian,"[{u'alias': u'indpak', u'title': u'Indian'}]",POINT (-73.75912459999999 40.7210723),-73.75912459999999,40.7210723,"[206 12 Hillside Ave, Queens Village, NY 11427]",Queens Village,NY,11427.0,2.0,4.0,139,0,1,1,0,asian
134,pv_9QjRf45GRd3pMeKmmKw,Agra King,agra-king-brooklyn,Indian,"[{u'alias': u'halal', u'title': u'Halal'}, {u'alias': u'indpak', u'title': u'Indian'}]",POINT (-73.935937 40.622162),-73.935937,40.622162,"[1961 Flatbush Ave, Brooklyn, NY 11234]",Brooklyn,NY,11234.0,2.0,4.5,9,0,1,1,0,asian
135,NztBFASX-zzg0tROoLiKOg,Mysttik Masaala,mysttik-masaala-long-island-city-7,Indian,"[{u'alias': u'indpak', u'title': u'Indian'}, {u'alias': u'foodtrucks', u'title': u'Food Trucks'}]",POINT (-73.95573229999999 40.7457869),-73.9557323,40.7457869,"[4702 5th St, Long Island City, NY 11101]",Long Island City,NY,11101.0,,4.5,66,0,0,0,0,asian
136,jt6ygaAb0W_o3nWqbr_UjQ,Bombay Spice,bombay-spice-brooklyn,Indian,"[{u'alias': u'indpak', u'title': u'Indian'}, {u'alias': u'desserts', u'title': u'Desserts'}, {u'alias': u'seafood', u'title': u'Seafood'}]",POINT (-73.95253000000001 40.67613),-73.95253000000001,40.67613,"[1018 Bergen St, Brooklyn, NY 11216]",Brooklyn,NY,11216.0,2.0,4.0,39,0,1,1,0,asian
137,iGIr7N3UlcidQ0FlPBSK4A,Mumtaz Indian Restaurant,mumtaz-indian-restaurant-new-york,Indian,"[{u'alias': u'indpak', u'title': u'Indian'}]",POINT (-73.94811999999999 40.77409),-73.94811999999999,40.77409,"[1582 York Ave, New York, NY 10028]",New York,NY,10028.0,2.0,4.0,77,0,1,1,0,asian
138,LB-5zqmok2NI0DLkkjJ9Gg,Fresh Pond Spice,fresh-pond-spice-ridgewood,Indian,"[{u'alias': u'indpak', u'title': u'Indian'}, {u'alias': u'himalayan', u'title': u'Himalayan/Nepalese'}]",POINT (-73.89957427979999 40.71015167239999),-73.89957427979999,40.710151672399995,"[6402 Fresh Pond Rd, Ridgewood, NY 11385]",Ridgewood,NY,11385.0,2.0,4.5,56,0,1,1,0,asian
139,niivJKBqY5wToDukqZHetQ,Karma Kafe,karma-kafe-hoboken,Indian,"[{u'alias': u'indpak', u'title': u'Indian'}]",POINT (-74.02909 40.74238),-74.02909,40.74238,"[505 Washington St, Hoboken, NJ 07030]",Hoboken,NJ,7030.0,2.0,4.0,487,0,1,1,0,asian
140,1TLoaB7SXJZo3W5f4OGm8w,Ayurveda Cafe,ayurveda-cafe-new-york,Indian,"[{u'alias': u'indpak', u'title': u'Indian'}, {u'alias': u'vegan', u'title': u'Vegan'}, {u'alias': u'pakistani', u'title': u'Pakistani'}]",POINT (-73.97131999999999 40.79305),-73.97131999999999,40.79305,"[706 Amsterdam Ave, New York, NY 10025]",New York,NY,10025.0,2.0,4.0,267,0,1,1,1,asian
141,WSesw7dMYKmF3XHqD0K0WQ,Asya Indian Restaurant,asya-indian-restaurant-brooklyn,Indian,"[{u'alias': u'indpak', u'title': u'Indian'}]",POINT (-73.99209999999999 40.69963),-73.9921,40.69963,"[46 Henry St, Brooklyn, NY 11201]",Brooklyn,NY,11201.0,2.0,3.0,216,0,1,1,1,asian
142,BNdEbtO1rjCulgqK3zDnyQ,Hyderabadi Biryani & Chat,hyderabadi-biryani-and-chat-flushing,Indian,"[{u'alias': u'indpak', u'title': u'Indian'}, {u'alias': u'asianfusion', u'title': u'Asian Fusion'}]",POINT (-73.82208440000001 40.7534816),-73.82208440000001,40.7534816,"[44-27 Kissena Blvd, Flushing, NY 11355]",Flushing,NY,11355.0,1.0,3.5,134,0,1,1,0,asian
143,eht_0com4C1sQbl9qCzlag,Hungry Bird,hungry-bird-bronx-2,Indian,"[{u'alias': u'indpak', u'title': u'Indian'}, {u'alias': u'salad', u'title': u'Salad'}, {u'alias': u'asianfusion', u'title': u'Asian Fusion'}]",POINT (-73.91669 40.82847),-73.91669,40.82847,"[980 Morris Ave, Bronx, NY 10456]",Bronx,NY,10456.0,2.0,4.5,144,0,1,1,0,asian
144,WdaLydR9O57rWbTnQQQ1OQ,Ruma's Kitchen,rumas-kitchen-woodside,Indian,"[{u'alias': u'indpak', u'title': u'Indian'}, {u'alias': u'bangladeshi', u'title': u'Bangladeshi'}, {u'alias': u'breakfast_brunch', u'title': u'Breakfast & Brunch'}]",POINT (-73.9016969 40.7493792),-73.9016969,40.7493792,"[37-01 61st St, Woodside, NY 11377]",Woodside,NY,11377.0,2.0,4.5,24,0,1,1,0,asian
145,SP4bvMvxel_UPdof_er3HA,Taco Mahal,taco-mahal-new-york,Indian,"[{u'alias': u'indpak', u'title': u'Indian'}, {u'alias': u'tacos', u'title': u'Tacos'}]",POINT (-74.0035128797 40.7323553689),-74.0035128797,40.7323553689,"[73 7th Ave S, New York, NY 10014]",New York,NY,10014.0,1.0,4.5,337,0,1,1,0,asian
146,3uEkZEAp7biQEtt0S7W1Vg,Vatan Indian Vegetarian,vatan-indian-vegetarian-new-york-2,Indian,"[{u'alias': u'indpak', u'title': u'Indian'}, {u'alias': u'vegetarian', u'title': u'Vegetarian'}, {u'alias': u'kosher', u'title': u'Kosher'}]",POINT (-73.98024000000001 40.74231),-73.98024000000001,40.742309999999996,"[409 3rd Ave, New York, NY 10016]",New York,NY,10016.0,3.0,4.0,511,0,0,0,1,asian
147,GVaTZnN7a-DkrK57l7BbGw,Boishakhi Restaurant,boishakhi-restaurant-astoria-2,Indian,"[{u'alias': u'indpak', u'title': u'Indian'}, {u'alias': u'bangladeshi', u'title': u'Bangladeshi'}, {u'alias': u'halal', u'title': u'Halal'}]",POINT (-73.9310011268 40.7569548877),-73.9310011268,40.7569548877,"[2914 36th Ave, Astoria, NY 11106]",Astoria,NY,11106.0,1.0,4.5,40,0,1,1,0,asian
148,gc5VOvoqzM8UQJwV1mhdkA,Taj Kabab King,taj-kabab-king-brooklyn,Indian,"[{u'alias': u'indpak', u'title': u'Indian'}]",POINT (-73.9491 40.710938),-73.9491,40.710938,"[568 Grand St, Brooklyn, NY 11211]",Brooklyn,NY,11211.0,2.0,3.5,259,0,1,1,1,asian
149,fmH4YbvpYdcpaaYOL1g7wg,Bombay Heights,bombay-heights-brooklyn-2,Indian,"[{u'alias': u'indpak', u'title': u'Indian'}]",POINT (-73.95513699999999 40.688221),-73.955137,40.688221,"[1070 Bedford Ave, Brooklyn, NY 11216]",Brooklyn,NY,11216.0,2.0,3.5,38,0,1,1,0,asian
150,S6r0P0PItA9EYHV1nCiQgg,Mysttik Masaala,mysttik-masaala-new-york-13,Indian,"[{u'alias': u'foodtrucks', u'title': u'Food Trucks'}, {u'alias': u'indpak', u'title': u'Indian'}]",POINT (-73.9723344813 40.7588940107),-73.9723344813,40.758894010700004,"[375 Park Ave, Corner of 53rd street, New York, NY 10022]",New York,NY,10022.0,1.0,4.5,302,0,0,0,1,asian
151,OCBvpZwdnTh5rL9vtCkwhw,Bawarchi Indian Cuisine,bawarchi-indian-cuisine-new-york-4,Indian,"[{u'alias': u'indpak', u'title': u'Indian'}]",POINT (-73.95403 40.78787),-73.95403,40.78787,"[1396 Madison Ave, New York, NY 10029]",New York,NY,10029.0,2.0,4.5,37,0,1,1,0,asian
152,t_tWuzMEsoD9GDgAm_0l7g,Swagat,swagat-new-york,Indian,"[{u'alias': u'indpak', u'title': u'Indian'}]",POINT (-73.97781999999999 40.78353),-73.97782,40.78353,"[411 Amsterdam Ave, New York, NY 10024]",New York,NY,10024.0,2.0,3.5,345,0,1,1,1,asian
153,OD1CCNpXwUvXB9P6WkTy9A,Tandoor Palace,tandoor-palace-new-york-2,Indian,"[{u'alias': u'indpak', u'title': u'Indian'}]",POINT (-74.00578 40.70912),-74.00578,40.70912,"[88 Fulton St, New York, NY 10038]",New York,NY,10038.0,1.0,3.5,144,0,1,1,1,asian
154,3C6c_zqRz_U2AyeN_7LTsg,Himalayan Yak,himalayan-yak-jackson-heights,Indian,"[{u'alias': u'himalayan', u'title': u'Himalayan/Nepalese'}, {u'alias': u'indpak', u'title': u'Indian'}, {u'alias': u'desserts', u'title': u'Desserts'}]",POINT (-73.89275000000001 40.74647),-73.89275,40.74647,"[72-20 Roosevelt Ave, Jackson Heights, NY 11372]",Jackson Heights,NY,11372.0,2.0,4.0,502,0,1,1,1,asian
155,9o3Shnn1KK5EHieKE-YKIQ,Saffron Garden,saffron-garden-sunnyside,Indian,"[{u'alias': u'indpak', u'title': u'Indian'}]",POINT (-73.9175874 40.7464530742),-73.9175874,40.7464530742,"[46-11 Skillman Ave, Sunnyside, NY 11104]",Sunnyside,NY,11104.0,2.0,3.5,258,0,1,1,0,asian
156,jzO5HyrTtumHpe-pbUlndQ,Aangan,aangan-new-york,Indian,"[{u'alias': u'indpak', u'title': u'Indian'}]",POINT (-73.968795 40.799446),-73.968795,40.799446,"[2701 Broadway, New York, NY 10025]",New York,NY,10025.0,2.0,3.5,168,0,1,1,0,asian
157,7rTl_d-dqlK5dGG31ogSBg,Nanking,nanking-south-ozone-park-6,Indian,"[{u'alias': u'indpak', u'title': u'Indian'}, {u'alias': u'thai', u'title': u'Thai'}, {u'alias': u'chinese', u'title': u'Chinese'}]",POINT (-73.80398000000001 40.67484),-73.80398000000001,40.67484,"[134-07 Rockaway Blvd, South Ozone Park, NY 11420]",South Ozone Park,NY,11420.0,2.0,4.0,269,0,1,1,1,asian
158,4x4M_p_b8GvLkc4fe00GHA,Biryani House Cart,biryani-house-cart-new-york,Indian,"[{u'alias': u'indpak', u'title': u'Indian'}, {u'alias': u'foodstands', u'title': u'Food Stands'}, {u'alias': u'bangladeshi', u'title': u'Bangladeshi'}]",POINT (-74.01011 40.70865),-74.01011,40.70865,"[140 Broadway, New York, NY 10005]",New York,NY,10005.0,1.0,4.0,142,0,0,0,0,asian
159,l_Td-NFRIdxu7m6pgJUqhQ,Manhattan Valley,manhattan-valley-new-york-10,Indian,"[{u'alias': u'indpak', u'title': u'Indian'}]",POINT (-73.9697319902 40.7970059679),-73.9697319902,40.7970059679,"[2636 Broadway 100 St, New York, NY 10025]",New York,NY,10025.0,2.0,3.5,57,0,1,1,1,asian
160,uqBBk5o9McSEYQ88CG6yHg,Indikitch,indikitch-new-york-6,Indian,"[{u'alias': u'indpak', u'title': u'Indian'}]",POINT (-73.98724 40.75216),-73.98724,40.752159999999996,"[109 W 37th St, New York, NY 10018]",New York,NY,10018.0,2.0,4.0,24,0,0,0,0,asian
161,uy7QmtN9Sdb8z5hm2_VZSQ,Pondicheri,pondicheri-new-york-3,Indian,"[{u'alias': u'indpak', u'title': u'Indian'}, {u'alias': u'bars', u'title': u'Bars'}, {u'alias': u'bakeries', u'title': u'Bakeries'}]",POINT (-73.98830699999999 40.744449),-73.98830699999999,40.744448999999996,"[15 W 27th St, New York, NY 10001]",New York,NY,10001.0,2.0,3.5,170,0,1,1,0,asian
162,mc9lvusD4Na-KXT2z4ulzQ,Dosa Hutt,dosa-hutt-flushing,Indian,"[{u'alias': u'indpak', u'title': u'Indian'}, {u'alias': u'vegetarian', u'title': u'Vegetarian'}]",POINT (-73.81719459999999 40.7529486),-73.8171946,40.7529486,"[45-63 Bowne St, Flushing, NY 11355]",Flushing,NY,11355.0,1.0,4.5,189,0,0,0,1,asian
163,7cHTm1XExnsbIRiWi8TAaQ,Curry Garden,curry-garden-brooklyn-3,Indian,"[{u'alias': u'indpak', u'title': u'Indian'}]",POINT (-73.95049877460001 40.6743773818),-73.9504987746,40.6743773818,"[787 Prospect Pl, Brooklyn, NY 11216]",Brooklyn,NY,11216.0,2.0,4.0,53,0,1,1,0,asian
164,jb-Fe1cC3ZARF9xyFvJQYQ,Tandoor Oven,tandoor-oven-new-york,Indian,"[{u'alias': u'indpak', u'title': u'Indian'}]",POINT (-73.95569640000001 40.7771396),-73.95569640000001,40.7771396,"[175 E 83rd St, New York, NY 10028]",New York,NY,10028.0,2.0,3.5,136,0,1,1,0,asian
165,EPHhPGDFvnq2ARTBxAikuw,Milon,milon-new-york,Indian,"[{u'alias': u'indpak', u'title': u'Indian'}, {u'alias': u'bangladeshi', u'title': u'Bangladeshi'}]",POINT (-73.986648 40.726322),-73.986648,40.726321999999996,"[93 1st Ave, New York, NY 10003]",New York,NY,10003.0,2.0,3.5,476,0,0,0,0,asian
166,IRRhwACUiMaqkBVAZiCzeg,Hampton Chutney,hampton-chutney-new-york-2,Indian,"[{u'alias': u'indpak', u'title': u'Indian'}, {u'alias': u'salad', u'title': u'Salad'}, {u'alias': u'sandwiches', u'title': u'Sandwiches'}]",POINT (-73.999588 40.720066),-73.999588,40.720065999999996,"[143 Grand St, New York, NY 10013]",New York,NY,10013.0,2.0,4.0,64,0,1,1,0,asian
167,KtYEMI-_zy5hoZTBd3i3Tw,Indian Curry Heights,indian-curry-heights-brooklyn,Indian,"[{u'alias': u'indpak', u'title': u'Indian'}]",POINT (-73.923047 40.685816),-73.923047,40.685815999999996,"[125 Ralph Ave, Brooklyn, NY 11221]",Brooklyn,NY,11221.0,2.0,3.5,42,0,1,1,1,asian
168,f26O6kd8FCWoCXfQUNWJ2g,Great Indian Curry,great-indian-curry-brooklyn,Indian,"[{u'alias': u'indpak', u'title': u'Indian'}]",POINT (-73.95496999999999 40.64005),-73.95496999999999,40.64005,"[1241 Flatbush Ave, Brooklyn, NY 11226]",Brooklyn,NY,11226.0,2.0,3.5,82,0,1,1,0,asian
169,D_xGTuIZqh1g6ie9QybcYw,Bawarchi Indian Cuisine,bawarchi-indian-cuisine-new-york-2,Indian,"[{u'alias': u'indpak', u'title': u'Indian'}, {u'alias': u'soup', u'title': u'Soup'}, {u'alias': u'seafood', u'title': u'Seafood'}]",POINT (-73.95039 40.7928),-73.95039,40.7928,"[1546 Madison Ave, New York, NY 10029]",New York,NY,10029.0,2.0,4.0,88,0,1,1,0,asian
170,ciIoPi0WqaNyB6xkwRKxzA,Joy Curry & Tandoor,joy-curry-and-tandoor-new-york-5,Indian,"[{u'alias': u'indpak', u'title': u'Indian'}]",POINT (-73.98402 40.75207),-73.98402,40.75207,"[32 W 39th St, New York, NY 10018]",New York,NY,10018.0,2.0,3.5,103,0,1,1,0,asian
171,6KOeVK9KMmVG6Q3chyZ_Bg,Taste of Bengal,taste-of-bengal-astoria,Indian,"[{u'alias': u'indpak', u'title': u'Indian'}, {u'alias': u'bangladeshi', u'title': u'Bangladeshi'}, {u'alias': u'halal', u'title': u'Halal'}]",POINT (-73.9204675118 40.7677209471),-73.9204675118,40.7677209471,"[2827 31st St, Astoria, NY 11102]",Astoria,NY,11102.0,2.0,4.5,122,0,1,1,0,asian
172,lPno4CCubHeWXnPnglp8sQ,Soho Tiffin Junction - Burgers & Bowls,soho-tiffin-junction-burgers-and-bowls-new-york,Indian,"[{u'alias': u'indpak', u'title': u'Indian'}, {u'alias': u'burgers', u'title': u'Burgers'}]",POINT (-73.9942170245 40.7313073067),-73.9942170245,40.7313073067,"[42 East 8th St, New York, NY 10003]",New York,NY,10003.0,1.0,4.0,229,0,1,1,0,asian
173,XgqIDfU6tKPUdRxRG5uDNw,Desi Deli Indian Restaurant,desi-deli-indian-restaurant-new-york-3,Indian,"[{u'alias': u'indpak', u'title': u'Indian'}, {u'alias': u'bubbletea', u'title': u'Bubble Tea'}, {u'alias': u'breakfast_brunch', u'title': u'Breakfast & Brunch'}]",POINT (-73.99181999999999 40.76433),-73.99181999999999,40.76433,"[724 10th Ave, New York, NY 10019]",New York,NY,10019.0,1.0,4.0,86,0,1,1,1,asian
174,yauWDobtVPplAiACo1JuYA,Kabab Bites,kabab-bites-new-york,Indian,"[{u'alias': u'indpak', u'title': u'Indian'}, {u'alias': u'halal', u'title': u'Halal'}]",POINT (-73.99592 40.72002),-73.99592,40.72002,"[369 Broome St, New York, NY 10013]",New York,NY,10013.0,2.0,4.0,71,0,1,1,1,asian
175,7N3jL-c6jHNsSg2m1Zb-fA,Simon Indian Palace,simon-indian-palace-new-york,Indian,"[{u'alias': u'indpak', u'title': u'Indian'}]",POINT (-73.96589 40.76019),-73.96589,40.76019,"[230 E 58th St, New York, NY 10022]",New York,NY,10022.0,2.0,4.0,41,0,1,1,1,asian
176,9e78dH4McZRT5WcoSCI-zg,Indian Xpress 2,indian-xpress-2-staten-island,Indian,"[{u'alias': u'indpak', u'title': u'Indian'}]",POINT (-74.08301999999999 40.59834),-74.08301999999999,40.59834,"[1201 Hylan Blvd, Staten Island, NY 10305]",Staten Island,NY,10305.0,,3.5,15,0,1,1,0,asian
177,PdzL9svqapSqH4o8bF86Pw,Punjabi Grocery & Deli,punjabi-grocery-and-deli-new-york,Indian,"[{u'alias': u'indpak', u'title': u'Indian'}, {u'alias': u'grocery', u'title': u'Grocery'}, {u'alias': u'delis', u'title': u'Delis'}]",POINT (-73.98662245770001 40.7227225424),-73.98662245770001,40.7227225424,"[114 E 1st St, New York, NY 10009]",New York,NY,10009.0,1.0,4.5,348,0,0,0,0,asian
178,8soP-zjZsslrb5egCkRDvQ,Delhi Heights,delhi-heights-brooklyn,Indian,"[{u'alias': u'indpak', u'title': u'Indian'}]",POINT (-73.92021099999999 40.6832),-73.920211,40.6832,"[577 Decatur St, 156 Howard Ave, Brooklyn, NY 11233]",Brooklyn,NY,11233.0,2.0,3.5,137,0,1,1,0,asian
179,jG3XHl8Bkw5KEwAI93ciVw,Nirvana,nirvana-new-york-2,Indian,"[{u'alias': u'indpak', u'title': u'Indian'}, {u'alias': u'soup', u'title': u'Soup'}, {u'alias': u'seafood', u'title': u'Seafood'}]",POINT (-73.977401 40.750026),-73.977401,40.750026,"[346 Lexington Ave, New York, NY 10016]",New York,NY,10016.0,2.0,3.5,423,0,1,1,1,asian
180,Y2I946V78wOdwaUD9chmqg,Roti Roll Bombay Frankie,roti-roll-bombay-frankie-new-york,Indian,"[{u'alias': u'indpak', u'title': u'Indian'}]",POINT (-73.96437 40.8026),-73.96437,40.8026,"[994 Amsterdam Ave, New York, NY 10025]",New York,NY,10025.0,1.0,4.0,331,0,1,1,0,asian
181,tN37MOvqzrmpU0h0PfoDmw,Utsav,utsav-new-york-3,Indian,"[{u'alias': u'indpak', u'title': u'Indian'}, {u'alias': u'vegetarian', u'title': u'Vegetarian'}, {u'alias': u'buffets', u'title': u'Buffets'}]",POINT (-73.98242440000001 40.7578756),-73.98242440000001,40.7578756,"[1185 Avenue Of The Americas Plz, New York, NY 10036]",New York,NY,10036.0,2.0,3.5,370,0,1,1,1,asian
182,7k2uvrFxOoBwV7c2m0UBNw,Curry Express,curry-express-new-york,Indian,"[{u'alias': u'indpak', u'title': u'Indian'}, {u'alias': u'pakistani', u'title': u'Pakistani'}]",POINT (-73.98175000000001 40.7430499),-73.98175,40.7430499,"[130 E 29th St, New York, NY 10016]",New York,NY,10016.0,1.0,4.0,194,0,1,1,0,asian
183,aLnt6DwRxlSm8xD9nuEEmA,Mumbai Place,mumbai-place-brooklyn,Indian,"[{u'alias': u'indpak', u'title': u'Indian'}, {u'alias': u'halal', u'title': u'Halal'}]",POINT (-73.96865099999999 40.677229),-73.968651,40.677229,"[655 Vanderbilt Ave, Brooklyn, NY 11238]",Brooklyn,NY,11238.0,2.0,4.0,22,0,1,1,0,asian
184,9y6UQ2GYKe08-WF_1jTX0A,Touch of Spice,touch-of-spice-weehawken,Indian,"[{u'alias': u'indpak', u'title': u'Indian'}]",POINT (-74.01993 40.77494),-74.01993,40.77494,"[4114 Park Ave, Weehawken, NJ 07086]",Weehawken,NJ,7086.0,2.0,4.0,156,0,1,1,0,asian
185,wPDNt1enVbzu01s0sVAvsw,Superfine Tiffins,superfine-tiffins-jamaica-3,Indian,"[{u'alias': u'indpak', u'title': u'Indian'}, {u'alias': u'fooddeliveryservices', u'title': u'Food Delivery Services'}, {u'alias': u'catering', u'title': u'Caterers'}]",POINT (-73.79713000000001 40.67432),-73.79713000000001,40.67432,"[142-49 Rockaway Blvd, Jamaica, NY 11436]",Jamaica,NY,11436.0,2.0,5.0,43,0,1,1,0,asian
186,RRg3P3NsYzutXn5M6mluxw,Lasani Restaurant,lasani-restaurant-new-york,Indian,"[{u'alias': u'indpak', u'title': u'Indian'}, {u'alias': u'mideastern', u'title': u'Middle Eastern'}, {u'alias': u'pakistani', u'title': u'Pakistani'}]",POINT (-73.98791999999999 40.74588),-73.98791999999999,40.74588,"[15 W 29th St, New York, NY 10001]",New York,NY,10001.0,1.0,3.5,37,0,1,1,0,asian
187,K9t9xqhbLIePem5Okb3J9Q,Indian Express,indian-express-new-york-2,Indian,"[{u'alias': u'indpak', u'title': u'Indian'}]",POINT (-73.93801999999999 40.82871),-73.93802,40.82871,"[301 W 154th St, Ste 1, New York, NY 10039]",New York,NY,10039.0,2.0,4.0,18,0,1,1,0,asian
188,fu5f6biOPsvgKYEfPfSZEQ,Agra Heights,agra-heights-brooklyn,Indian,"[{u'alias': u'indpak', u'title': u'Indian'}]",POINT (-73.92146700000001 40.698017),-73.921467,40.698017,"[226 Wilson Ave, Brooklyn, NY 11237]",Brooklyn,NY,11237.0,2.0,3.5,109,0,1,1,0,asian
189,TlKUPuAnVptyR2x1JHSqfA,Cumin Indian Restaurant,cumin-indian-restaurant-bronx-2,Indian,"[{u'alias': u'indpak', u'title': u'Indian'}, {u'alias': u'pakistani', u'title': u'Pakistani'}]",POINT (-73.90987 40.88653),-73.90987,40.88653,"[3549 Johnson Ave, Bronx, NY 10463]",Bronx,NY,10463.0,2.0,3.5,122,0,1,1,0,asian
190,L_MGrE-eRwSWaf06ltqXTw,Andaz Indian Restaurant,andaz-indian-restaurant-new-york,Indian,"[{u'alias': u'indpak', u'title': u'Indian'}]",POINT (-73.95489499999999 40.768726),-73.954895,40.768726,"[1378 1st Ave, New York, NY 10021]",New York,NY,10021.0,2.0,3.5,183,0,1,1,1,asian
191,3hlAeWgSKAnSQ1tg8k8D8g,Alachi Masala,alachi-masala-new-york-3,Indian,"[{u'alias': u'indpak', u'title': u'Indian'}, {u'alias': u'gluten_free', u'title': u'Gluten-Free'}, {u'alias': u'vegan', u'title': u'Vegan'}]",POINT (-73.97649 40.78621),-73.97649,40.78621,"[488 Amsterdam Ave, New York, NY 10024]",New York,NY,10024.0,2.0,4.0,167,0,1,1,0,asian
192,IpiGGEXxz-5QVJpijXVmmA,Jackson Diner,jackson-diner-jackson-heights,Indian,"[{u'alias': u'indpak', u'title': u'Indian'}]",POINT (-73.8915002 40.7477755),-73.8915002,40.7477755,"[3747 74th St, Jackson Heights, NY 11372]",Jackson Heights,NY,11372.0,2.0,3.5,559,0,1,1,0,asian
193,nQfPwIasXCi8NwNKq65vfw,Mysttik Masaala,mysttik-masaala-new-york-15,Indian,"[{u'alias': u'indpak', u'title': u'Indian'}, {u'alias': u'foodtrucks', u'title': u'Food Trucks'}]",POINT (-73.97547 40.75576),-73.97547,40.755759999999995,"[270 Park Ave, New York, NY 10172]",New York,NY,10172.0,,4.5,82,0,0,0,0,asian
194,dOsIIVVfgiDevGZLWaPnTg,DiwaneKhaas,diwanekhaas-new-york,Indian,"[{u'alias': u'indpak', u'title': u'Indian'}]",POINT (-74.00912 40.70903),-74.00912,40.70903,"[53 Nassau St, New York, NY 10038]",New York,NY,10038.0,1.0,3.5,94,0,1,1,0,asian
195,1SgiWHlFN5mp5gNLSGx2Ww,Panna II Garden Indian Restaurant,panna-ii-garden-indian-restaurant-new-york,Indian,"[{u'alias': u'indpak', u'title': u'Indian'}]",POINT (-73.98650000000001 40.72626),-73.9865,40.726259999999996,"[93 1st Ave, New York, NY 10003]",New York,NY,10003.0,2.0,3.0,835,0,0,0,0,asian
196,aFhnb8k6H-wD070vvxt4Fw,Kababish,kababish-jackson-heights,Indian,"[{u'alias': u'indpak', u'title': u'Indian'}, {u'alias': u'pakistani', u'title': u'Pakistani'}, {u'alias': u'bangladeshi', u'title': u'Bangladeshi'}]",POINT (-73.893979 40.747598),-73.893979,40.747597999999996,"[70-64 Broadway, Jackson Heights, NY 11373]",Jackson Heights,NY,11373.0,1.0,4.0,122,0,1,1,0,asian
197,1TJOTRt9Ws1vHh-zKNZmsw,India Cafe,india-cafe-ozone-park,Indian,"[{u'alias': u'indpak', u'title': u'Indian'}]",POINT (-73.82226 40.68235),-73.82226,40.68235,"[94-08 Lefferts Blvd, Ozone Park, NY 11419]",Ozone Park,NY,11419.0,2.0,4.0,50,0,1,1,0,asian
198,H0tgZ_2Yuayn18ylu2c3XQ,Cafe Matt & Meera,cafe-matt-and-meera-hoboken-2,Indian,"[{u'alias': u'indpak', u'title': u'Indian'}, {u'alias': u'tapasmallplates', u'title': u'Tapas/Small Plates'}]",POINT (-74.02919079829999 40.7441350665),-74.0291907983,40.7441350665,"[618 Washington St, Hoboken, NJ 07030]",Hoboken,NJ,7030.0,2.0,4.0,402,0,1,1,1,asian
199,pKnqJZpCX3xYIURHOnWuig,Paradise Restaurant,paradise-restaurant-brooklyn-3,Indian,"[{u'alias': u'indpak', u'title': u'Indian'}, {u'alias': u'pakistani', u'title': u'Pakistani'}, {u'alias': u'bangladeshi', u'title': u'Bangladeshi'}]",POINT (-73.9980449528 40.6383999913),-73.9980449528,40.6383999913,"[4904 Fort Hamilton Pkwy, Brooklyn, NY 11219]",Brooklyn,NY,11219.0,2.0,3.5,14,0,1,1,0,asian
200,Rk6TXh7nINbzJoGtI2C5cA,Desi Galli,desi-galli-new-york-3,Indian,"[{u'alias': u'indpak', u'title': u'Indian'}]",POINT (-73.979782 40.72739),-73.979782,40.72739,"[172 Avenue B, Corner 11th, New York, NY 10009]",New York,NY,10009.0,2.0,3.5,54,0,1,1,0,asian
201,yRJfv1ERRieWTX-uHCFDtg,Punjabi Indian & American Restaurant,punjabi-indian-and-american-restaurant-flushing,Indian,"[{u'alias': u'indpak', u'title': u'Indian'}, {u'alias': u'newamerican', u'title': u'American (New)'}]",POINT (-73.80601999999999 40.75367),-73.80601999999999,40.75367,"[160-20 46th Ave, Flushing, NY 11358]",Flushing,NY,11358.0,1.0,3.5,89,0,1,1,0,asian
202,ugEZc_Cc4tu71j-yuj9HCQ,Chawla's,chawlas-south-ozone-park,Indian,"[{u'alias': u'indpak', u'title': u'Indian'}]",POINT (-73.8066 40.67507),-73.8066,40.67507,"[131-19 Rockaway Blvd, South Ozone Park, NY 11420]",South Ozone Park,NY,11420.0,1.0,4.0,56,0,1,1,0,asian
203,5z7OuOWuZRu6byp2XDKbQw,Saravanaa Bhavan,saravanaa-bhavan-new-york-7,Indian,"[{u'alias': u'indpak', u'title': u'Indian'}, {u'alias': u'vegetarian', u'title': u'Vegetarian'}]",POINT (-73.98305999999999 40.7414),-73.98306,40.7414,"[81 Lexington Ave, New York, NY 10016]",New York,NY,10016.0,2.0,3.5,767,0,1,1,0,asian
204,gHw2LnjgqyJclvlOjISv6g,Spice Wala Indian Cuisine,spice-wala-indian-cuisine-new-york,Indian,"[{u'alias': u'indpak', u'title': u'Indian'}]",POINT (-73.98641259999999 40.7263365),-73.9864126,40.7263365,"[97 1st Ave, New York, NY 10003]",New York,NY,10003.0,2.0,4.0,25,0,1,1,0,asian
205,h0Z2RZBZbiqS-Yw22WyTaQ,Maharaja Palace,maharaja-palace-new-york-2,Indian,"[{u'alias': u'indpak', u'title': u'Indian'}, {u'alias': u'diners', u'title': u'Diners'}, {u'alias': u'vegetarian', u'title': u'Vegetarian'}]",POINT (-73.9562846158 40.8033065718),-73.9562846158,40.8033065718,"[2113 Frederick Douglass Blvd, New York, NY 10026]",New York,NY,10026.0,2.0,3.5,143,0,1,1,1,asian
206,B0IXsKwCk21hNQffYPJmHA,Chaiwali Harlem,chaiwali-harlem-manhattan,Indian,"[{u'alias': u'indpak', u'title': u'Indian'}, {u'alias': u'breakfast_brunch', u'title': u'Breakfast & Brunch'}, {u'alias': u'vegan', u'title': u'Vegan'}]",POINT (-73.94588 40.80678),-73.94588,40.806779999999996,"[274 Lenox Ave, Manhattan, NY 10027]",Manhattan,NY,10027.0,2.0,3.5,184,0,1,1,1,asian
207,o5_roJB43PNm0PhhJ-0mXQ,Masala Club,masala-club-new-york,Indian,"[{u'alias': u'indpak', u'title': u'Indian'}]",POINT (-73.9662829041 40.802333504),-73.9662829041,40.802333504,"[254 W 108th St, New York, NY 10025]",New York,NY,10025.0,2.0,3.5,37,0,1,1,0,asian
208,nd0uXNXaeaDMuMk4C1GusA,Bukhara Grill,bukhara-grill-new-york,Indian,"[{u'alias': u'indpak', u'title': u'Indian'}, {u'alias': u'buffets', u'title': u'Buffets'}, {u'alias': u'vegetarian', u'title': u'Vegetarian'}]",POINT (-73.97028 40.75501),-73.97028,40.75501,"[217 E 49th St, New York, NY 10017]",New York,NY,10017.0,2.0,3.5,478,0,1,1,0,asian
209,c5vz72Q9mAmRs2NZUsWpRQ,New Asian Food,new-asian-food-flushing,Indian,"[{u'alias': u'indpak', u'title': u'Indian'}]",POINT (-73.8225969672 40.7540725172),-73.8225969672,40.7540725172,"[140-13 Cherry Ave, Flushing, NY 11355]",Flushing,NY,11355.0,,5.0,4,0,0,0,0,asian
210,EgxnURDBkeKXV9rKzHrJLA,Aanchal Indian Restaurant & Bar,aanchal-indian-restaurant-and-bar-long-island-city-4,Indian,"[{u'alias': u'indpak', u'title': u'Indian'}, {u'alias': u'bars', u'title': u'Bars'}]",POINT (-73.94573000000001 40.74659),-73.94573000000001,40.746590000000005,"[45-12 23rd St, Long Island City, NY 11101]",Long Island City,NY,11101.0,2.0,3.5,110,0,1,1,0,asian
211,kl8Lw7RD7cSeX55Ad5ab7Q,Lahori Chilli,lahori-chilli-brooklyn-2,Indian,"[{u'alias': u'pakistani', u'title': u'Pakistani'}, {u'alias': u'indpak', u'title': u'Indian'}, {u'alias': u'bangladeshi', u'title': u'Bangladeshi'}]",POINT (-73.9669932454 40.632572327),-73.9669932454,40.632572327,"[1026 Coney Island Ave, Brooklyn, NY 11230]",Brooklyn,NY,11230.0,1.0,4.0,39,0,1,1,0,asian
212,sng5ejEyAA22ncDwxdu2lw,Chandni Restaurant,chandni-restaurant-new-york-3,Indian,"[{u'alias': u'indpak', u'title': u'Indian'}]",POINT (-73.9878234863 40.7459602356),-73.9878234863,40.7459602356,"[13 W 29th St, New York, NY 10001]",New York,NY,10001.0,1.0,3.5,122,0,1,1,0,asian
213,I2Y3_18dUz0CaSzsx_x7Ag,Dosa Garden,dosa-garden-staten-island,Indian,"[{u'alias': u'indpak', u'title': u'Indian'}, {u'alias': u'srilankan', u'title': u'Sri Lankan'}, {u'alias': u'vegan', u'title': u'Vegan'}]",POINT (-74.08577728270001 40.6343269348),-74.08577728270001,40.6343269348,"[323 Victory Blvd, Staten Island, NY 10301]",Staten Island,NY,10301.0,2.0,3.5,98,0,1,1,0,asian
214,QEudjEGzNalNUN2V2dZVJA,Indian House Biryani,indian-house-biryani-new-york,Indian,"[{u'alias': u'indpak', u'title': u'Indian'}]",POINT (-74.0112166107 40.715419203),-74.0112166107,40.715419203,"[274 Greenwich St, New York, NY 10007]",New York,NY,10007.0,,5.0,1,0,0,0,0,asian
215,q3QWb_zYe5TxDqByWv1bKg,Bombay Sandwich Co.,bombay-sandwich-co-new-york-35,Indian,"[{u'alias': u'vegan', u'title': u'Vegan'}, {u'alias': u'indpak', u'title': u'Indian'}, {u'alias': u'sandwiches', u'title': u'Sandwiches'}]",POINT (-73.99121 40.75202),-73.99121,40.75202,"[224 W 35th St, New York, NY 10001]",New York,NY,10001.0,2.0,4.5,63,0,1,1,0,asian
216,tIjQyHOubGeKRnx4wSwOeA,goa taco,goa-taco-new-york,Indian,"[{u'alias': u'hotdogs', u'title': u'Fast Food'}, {u'alias': u'tacos', u'title': u'Tacos'}, {u'alias': u'indpak', u'title': u'Indian'}]",POINT (-73.99003 40.71887),-73.99003,40.71887,"[79 Delancey St, New York, NY 10002]",New York,NY,10002.0,1.0,4.5,447,0,1,1,0,asian
217,hG1H6NRQvWQkr7OeTFqDSw,Anarkali Indian Cuisine,anarkali-indian-cuisine-brooklyn,Indian,"[{u'alias': u'indpak', u'title': u'Indian'}]",POINT (-73.9686 40.647476),-73.9686,40.647476,"[1125 Church Ave, Brooklyn, NY 11218]",Brooklyn,NY,11218.0,2.0,3.5,89,0,1,1,0,asian
218,eTe0fY7PUIKuxgSdxgkD_A,Silli Point Indian Fusion,silli-point-indian-fusion-cliffside-park,Indian,"[{u'alias': u'indpak', u'title': u'Indian'}, {u'alias': u'asianfusion', u'title': u'Asian Fusion'}]",POINT (-73.9903 40.82157),-73.9903,40.82157,"[498 Anderson Ave, First Floor, Cliffside Park, NJ 07010]",Cliffside Park,NJ,7010.0,2.0,4.5,151,0,1,1,0,asian
219,rML0mPoWQHxG8ifHGuI7pQ,Mashallah Sweets & Restaurant,mashallah-sweets-and-restaurant-brooklyn,Indian,"[{u'alias': u'pakistani', u'title': u'Pakistani'}, {u'alias': u'indpak', u'title': u'Indian'}]",POINT (-73.969039 40.641254),-73.969039,40.641253999999996,"[663 Coney Island Ave, Brooklyn, NY 11218]",Brooklyn,NY,11218.0,1.0,3.5,81,0,1,1,0,asian
220,yb9o5T88FPUXYOzxyXlUcw,Ganesh Temple Canteen,ganesh-temple-canteen-flushing,Indian,"[{u'alias': u'indpak', u'title': u'Indian'}, {u'alias': u'vegetarian', u'title': u'Vegetarian'}]",POINT (-73.81651100000001 40.75262),-73.816511,40.75262,"[143-09 Holly Ave, Flushing, NY 11355]",Flushing,NY,11355.0,1.0,4.0,201,0,0,0,0,asian
221,MotfuoOFiEmOKOcRCnRhdA,Lahore Deli,lahore-deli-new-york,Indian,"[{u'alias': u'delis', u'title': u'Delis'}, {u'alias': u'indpak', u'title': u'Indian'}, {u'alias': u'pakistani', u'title': u'Pakistani'}]",POINT (-73.99632 40.72478),-73.99632,40.724779999999996,"[132 Crosby St, New York, NY 10012]",New York,NY,10012.0,1.0,4.0,153,0,1,1,0,asian
222,DOdbSGm9ULZlVz-1-Jjhmg,Chote Nawab,chote-nawab-new-york,Indian,"[{u'alias': u'indpak', u'title': u'Indian'}]",POINT (-73.98232 40.74245999999999),-73.98232,40.742459999999994,"[115 Lexington Ave, New York, NY 10016]",New York,NY,10016.0,2.0,3.5,468,0,1,1,0,asian
223,YM5AbOOg-TjuHJrQmfd0Hw,Desi Galli,desi-galli-new-york-2,Indian,"[{u'alias': u'indpak', u'title': u'Indian'}]",POINT (-73.982528 40.742069),-73.982528,40.742069,"[101 Lexington Ave, New York, NY 10016]",New York,NY,10016.0,1.0,3.5,260,0,1,1,0,asian
224,KLLRrrPHsA5oQKYwreTI9w,Randiwa,randiwa-staten-island,Indian,"[{u'alias': u'srilankan', u'title': u'Sri Lankan'}, {u'alias': u'indpak', u'title': u'Indian'}]",POINT (-74.15774999989999 40.6136417795),-74.15774999989999,40.6136417795,"[1405 Richmond Ave, Staten Island, NY 10314]",Staten Island,NY,10314.0,2.0,4.5,16,0,0,0,0,asian
225,khZwIk7s0AqTk0jy0WPvkw,Agra Grill,agra-grill-bronx,Indian,"[{u'alias': u'indpak', u'title': u'Indian'}]",POINT (-73.86244000000001 40.88465),-73.86244,40.88465,"[3835 White Plains Rd, Bronx, NY 10467]",Bronx,NY,10467.0,2.0,4.0,60,0,1,1,0,asian
226,pg2NNr7wQeMo5cJoTYPBRQ,Revolution Sandwich NY,revolution-sandwich-ny-new-york-3,Indian,"[{u'alias': u'sandwiches', u'title': u'Sandwiches'}, {u'alias': u'burgers', u'title': u'Burgers'}, {u'alias': u'indpak', u'title': u'Indian'}]",POINT (-74.0032257 40.7191286),-74.0032257,40.719128600000005,"[52 Walker St, Fl 1, New York, NY 10013]",New York,NY,10013.0,2.0,4.5,54,0,1,1,0,asian
227,5faOK0osoS-zdEwT21S-Cg,Saravanaa Bhavan,saravanaa-bhavan-new-york-9,Indian,"[{u'alias': u'indpak', u'title': u'Indian'}]",POINT (-73.97776999999999 40.7835899),-73.97776999999999,40.783589899999996,"[413 Amsterdam Ave, New York, NY 10024]",New York,NY,10024.0,2.0,3.0,260,0,1,1,0,asian
228,bFUVp77ApNkACqXvgiekPQ,Bhatti Indian Grill,bhatti-indian-grill-new-york,Indian,"[{u'alias': u'indpak', u'title': u'Indian'}]",POINT (-73.98308 40.74221),-73.98308,40.74221,"[100 Lexington Ave, New York, NY 10016]",New York,NY,10016.0,2.0,3.5,591,0,1,1,0,asian
229,-D-ye8DU5KndJ7mqBpKU1g,Araf Biriyani & Halal Food,araf-biriyani-and-halal-food-new-york,Indian,"[{u'alias': u'foodtrucks', u'title': u'Food Trucks'}, {u'alias': u'indpak', u'title': u'Indian'}]",POINT (-73.99793000000001 40.7258),-73.99793000000001,40.7258,"[New York, NY 10012]",New York,NY,10012.0,,5.0,1,0,0,0,0,asian
230,txfjMwfqr0HXNFZTJTkYiA,Khalil Biryani House,khalil-biryani-house-bronx,Indian,"[{u'alias': u'indpak', u'title': u'Indian'}, {u'alias': u'bangladeshi', u'title': u'Bangladeshi'}]",POINT (-73.8550591683 40.8353157663),-73.8550591683,40.8353157663,"[1445 Olmstead Ave, Bronx, NY 10462]",Bronx,NY,10462.0,1.0,5.0,10,0,1,0,0,asian
231,_2XWB0vPqUqkWdQuXfWi2w,Indian Taj,indian-taj-jackson-heights,Indian,"[{u'alias': u'indpak', u'title': u'Indian'}, {u'alias': u'buffets', u'title': u'Buffets'}, {u'alias': u'pakistani', u'title': u'Pakistani'}]",POINT (-73.89164360390001 40.7482641393),-73.89164360390001,40.7482641393,"[37-25 74th St, Jackson Heights, NY 11372]",Jackson Heights,NY,11372.0,2.0,3.5,239,0,1,1,0,asian
232,hKKDfUPcDX_c-RCWBMOr1w,Bombay Sandwich Co.,bombay-sandwich-co-new-york-29,Indian,"[{u'alias': u'indpak', u'title': u'Indian'}, {u'alias': u'vegan', u'title': u'Vegan'}, {u'alias': u'gluten_free', u'title': u'Gluten-Free'}]",POINT (-73.99035962020001 40.7450715522),-73.99035962020001,40.745071552199995,"[48 W 27th St, New York, NY 10001]",New York,NY,10001.0,2.0,4.0,328,0,1,1,0,asian
233,zi4fUgOwwGB5PYR2xq0OCQ,Namaste,namaste-edgewater,Indian,"[{u'alias': u'himalayan', u'title': u'Himalayan/Nepalese'}, {u'alias': u'indpak', u'title': u'Indian'}, {u'alias': u'asianfusion', u'title': u'Asian Fusion'}]",POINT (-73.9726699 40.83162),-73.9726699,40.83162,"[1086 River Rd, Edgewater, NJ 07020]",Edgewater,NJ,7020.0,2.0,4.5,196,0,1,1,0,asian
234,3Y-beEWD9prfpSZXrQjMPg,Tandoori Palace,tandoori-palace-jackson-heights,Indian,"[{u'alias': u'indpak', u'title': u'Indian'}, {u'alias': u'pakistani', u'title': u'Pakistani'}]",POINT (-73.8914834 40.7488341),-73.8914834,40.7488341,"[7414 37th Ave, Jackson Heights, NY 11372]",Jackson Heights,NY,11372.0,,4.0,3,0,0,0,0,asian
235,y_bDXn5PffeXZLXM4ZpvzQ,Hot 'n' Fresh Indian Grill,hot-n-fresh-indian-grill-new-york,Indian,"[{u'alias': u'indpak', u'title': u'Indian'}]",POINT (-73.9881789944 40.7549827297),-73.9881789944,40.7549827297,"[200 W 40th St, Manhattan, New York, NY 10018]",New York,NY,10018.0,1.0,4.5,12,0,0,0,0,asian
236,wQjQHZKH_DxwntbSe1QdxQ,Brick Lane Curry House,brick-lane-curry-house-new-york,Indian,"[{u'alias': u'indpak', u'title': u'Indian'}]",POINT (-73.98896999999999 40.72738),-73.98897,40.72738,"[99 2nd Ave, New York, NY 10003]",New York,NY,10003.0,2.0,3.5,930,0,1,1,1,asian
237,MzIUB4_G9TemKsPZJkelIw,Sapphire Indian Cuisine,sapphire-indian-cuisine-new-york,Indian,"[{u'alias': u'indpak', u'title': u'Indian'}]",POINT (-73.9824 40.76937),-73.9824,40.76937,"[1845 Broadway, New York, NY 10023]",New York,NY,10023.0,2.0,3.5,304,0,1,1,1,asian
238,4Kv4EVmrQ8TdlSD7MW0wHg,Babu Ji,babu-ji-new-york-2,Indian,"[{u'alias': u'indpak', u'title': u'Indian'}]",POINT (-73.99315 40.73469),-73.99315,40.73469,"[22 E 13th St, New York, NY 10003]",New York,NY,10003.0,2.0,3.5,85,0,0,0,0,asian
239,Xzc4Ex6Vx4T-RBc3N9fW5g,Modhu Mita Indian Restaurant,modhu-mita-indian-restaurant-new-york,Indian,"[{u'alias': u'indpak', u'title': u'Indian'}]",POINT (-73.9381812037 40.8233607931),-73.9381812037,40.8233607931,"[2546 7th Ave, New York, NY 10039]",New York,NY,10039.0,2.0,3.5,46,0,1,1,0,asian
240,x3NeZ4xToUxVKDoZ32D5tg,NY Dosas,ny-dosas-new-york,Indian,"[{u'alias': u'indpak', u'title': u'Indian'}, {u'alias': u'foodstands', u'title': u'Food Stands'}, {u'alias': u'vegetarian', u'title': u'Vegetarian'}]",POINT (-73.9986377977 40.730838608),-73.9986377977,40.730838608,"[50 Washington Sq S, New York, NY 10014]",New York,NY,10014.0,1.0,4.5,357,0,0,0,0,asian
241,PAhIveQCsTzi7FNPPQPutA,Chandni Chowk Restaurant,chandni-chowk-restaurant-east-bronx,Indian,"[{u'alias': u'indpak', u'title': u'Indian'}, {u'alias': u'halal', u'title': u'Halal'}, {u'alias': u'pakistani', u'title': u'Pakistani'}]",POINT (-73.8613699 40.86531),-73.8613699,40.86531,"[2570 Bronxwood Ave, East Bronx, NY 10469]",East Bronx,NY,10469.0,2.0,4.5,12,0,0,0,0,asian
242,kNzjRlXzL5XJInDqNwfMgA,Mysttik Masaala,mysttik-masaala-astoria,Indian,"[{u'alias': u'indpak', u'title': u'Indian'}, {u'alias': u'foodtrucks', u'title': u'Food Trucks'}]",POINT (-73.9190845624 40.7587012503),-73.9190845624,40.7587012503,"[3203 Steinway St, Astoria, NY 11103]",Astoria,NY,11103.0,,5.0,5,0,0,0,0,asian
243,HHkTmzDBE9sGWvtSW9Ne8A,Tangra Masala,tangra-masala-elmhurst-2,Indian,"[{u'alias': u'chinese', u'title': u'Chinese'}, {u'alias': u'indpak', u'title': u'Indian'}, {u'alias': u'seafood', u'title': u'Seafood'}]",POINT (-73.878328 40.736536),-73.878328,40.736536,"[87-09 Grand Ave, Elmhurst, NY 11373]",Elmhurst,NY,11373.0,2.0,3.5,266,0,0,0,0,asian
244,9lKYC8qs6owmBazkVR5XDA,Minar Indian Restaurant,minar-indian-restaurant-new-york-2,Indian,"[{u'alias': u'indpak', u'title': u'Indian'}]",POINT (-73.98402400000001 40.757882),-73.984024,40.757882,"[138 W 46th St, New York, NY 10036]",New York,NY,10036.0,1.0,3.5,290,0,1,1,0,asian
245,VNmSye6SGkwtSijlPnV5YA,Spice Rack,spice-rack-staten-island,Indian,"[{u'alias': u'indpak', u'title': u'Indian'}, {u'alias': u'srilankan', u'title': u'Sri Lankan'}, {u'alias': u'caribbean', u'title': u'Caribbean'}]",POINT (-74.12325 40.61321),-74.12325,40.613209999999995,"[1791 Victory Blvd, Staten Island, NY 10314]",Staten Island,NY,10314.0,2.0,3.0,21,0,1,1,0,asian
246,-mQG7oEHSAMr9dBDrrqI2g,Indikitch,indikitch-new-york-5,Indian,"[{u'alias': u'indpak', u'title': u'Indian'}]",POINT (-73.981701 40.757638),-73.981701,40.757638,"[1190 6th Ave, Rockefeller Center, New York, NY 10036]",New York,NY,10036.0,2.0,3.5,71,0,0,0,0,asian
247,HM7Mz6Hpxts58JJP7qELNQ,Eggmania,eggmania-jersey-city,Indian,"[{u'alias': u'indpak', u'title': u'Indian'}]",POINT (-74.0646962 40.7361383),-74.0646962,40.7361383,"[14 Liberty Ave, Jersey City, NJ 07306]",Jersey City,NJ,7306.0,2.0,4.5,276,0,0,0,0,asian
248,jwPAFWZ5B6ctjFqa4_mUSw,Basera,basera-new-york,Indian,"[{u'alias': u'indpak', u'title': u'Indian'}, {u'alias': u'cocktailbars', u'title': u'Cocktail Bars'}, {u'alias': u'beerbar', u'title': u'Beer Bar'}]",POINT (-73.98909999999999 40.76384),-73.9891,40.76384,"[745 9th Ave, New York, NY 10019]",New York,NY,10019.0,2.0,3.5,398,0,1,1,1,asian
249,5W2j5LFdJoWDOj2efIljUA,Dosa Royale,dosa-royale-new-york-4,Indian,"[{u'alias': u'indpak', u'title': u'Indian'}]",POINT (-73.99202 40.72664),-73.99202,40.72664,"[348 Bowey, Bowery Market, New York, NY 10012]",New York,NY,10012.0,,5.0,1,0,1,1,0,asian
250,DgFso8KK5MYTIYVmOmaYRA,Indian Curry House,indian-curry-house-new-york,Indian,"[{u'alias': u'indpak', u'title': u'Indian'}]",POINT (-73.99047 40.71987),-73.99047,40.71987,"[123 Allen St, New York, NY 10002]",New York,NY,10002.0,,4.5,7,0,1,1,0,asian
251,NydHMLL3iWR52oMd1s0GIQ,Caffe Lanka,caffe-lanka-bronx,Indian,"[{u'alias': u'srilankan', u'title': u'Sri Lankan'}, {u'alias': u'pakistani', u'title': u'Pakistani'}, {u'alias': u'indpak', u'title': u'Indian'}]",POINT (-73.85207709999999 40.8339502),-73.85207709999999,40.833950200000004,"[2166 Westchester Ave, Bronx, NY 10462]",Bronx,NY,10462.0,,4.5,21,0,1,0,0,asian
252,nydvJwzkth8lumyqKmCdnQ,Taj Mahal,taj-mahal-brooklyn-2,Indian,"[{u'alias': u'indpak', u'title': u'Indian'}, {u'alias': u'pakistani', u'title': u'Pakistani'}]",POINT (-73.98522 40.67071),-73.98522,40.67071,"[396 5th Ave, Brooklyn, NY 11215]",Brooklyn,NY,11215.0,2.0,3.0,53,0,1,1,0,asian
253,-_LtKO0FdpINUMAWMfDOOQ,Al Naimat Restaurant & Sweets,al-naimat-restaurant-and-sweets-jackson-heights,Indian,"[{u'alias': u'indpak', u'title': u'Indian'}, {u'alias': u'desserts', u'title': u'Desserts'}, {u'alias': u'coffee', u'title': u'Coffee & Tea'}]",POINT (-73.891538 40.74882),-73.891538,40.74882,"[3703 74th St, Jackson Heights, NY 11372]",Jackson Heights,NY,11372.0,1.0,4.0,103,0,0,0,0,asian
254,aM4h2RwyHyngSDehB_qq3g,Dawat Haute Indian Cuisine,dawat-haute-indian-cuisine-new-york,Indian,"[{u'alias': u'indpak', u'title': u'Indian'}]",POINT (-73.96633 40.7605),-73.96633,40.7605,"[210 E 58th St, New York, NY 10022]",New York,NY,10022.0,3.0,3.5,157,0,1,1,1,asian
255,HsEK7jGmzI7KP1e0N_6uQw,Mysttik Masaala,mysttik-masaala-queens-4,Indian,"[{u'alias': u'indpak', u'title': u'Indian'}, {u'alias': u'foodtrucks', u'title': u'Food Trucks'}]",POINT (-73.91090298270001 40.7761445017),-73.91090298270001,40.7761445017,"[2177 31st St, Astoria, Queens, NY 11105]",Queens,NY,11105.0,,5.0,29,0,0,0,0,asian
256,UgVY-74sV9xHzx6WR96Wog,Hadi Restaurant,hadi-restaurant-brooklyn,Indian,"[{u'alias': u'indpak', u'title': u'Indian'}, {u'alias': u'pakistani', u'title': u'Pakistani'}, {u'alias': u'halal', u'title': u'Halal'}]",POINT (-73.9688369 40.640831),-73.9688369,40.640831,"[683 Coney Island Ave, Brooklyn, NY 11218]",Brooklyn,NY,11218.0,1.0,4.0,33,0,1,1,0,asian
257,va55P895H8qYFBjjEk6LIA,Kinara Indian Restaurant,kinara-indian-restaurant-brooklyn,Indian,"[{u'alias': u'indpak', u'title': u'Indian'}]",POINT (-73.986953 40.66800300000001),-73.986953,40.668003000000006,"[473 5th Ave, Brooklyn, NY 11215]",Brooklyn,NY,11215.0,2.0,3.0,147,0,1,1,0,asian
258,dZENEWBMFMIbqIBGtlUwsQ,The Kati Roll Company,the-kati-roll-company-new-york-6,Indian,"[{u'alias': u'indpak', u'title': u'Indian'}]",POINT (-73.98746 40.72826),-73.98746,40.72826,"[128 2nd Ave, New York, NY 10003]",New York,NY,10003.0,2.0,4.0,53,0,1,1,0,asian
259,7-mcmUETyMifs3rbpvCObA,Yeti Spice Grill,yeti-spice-grill-new-york,Indian,"[{u'alias': u'indpak', u'title': u'Indian'}, {u'alias': u'desserts', u'title': u'Desserts'}, {u'alias': u'kebab', u'title': u'Kebab'}]",POINT (-73.9467215538 40.7802334786),-73.9467215538,40.7802334786,"[1764 1st Ave, New York, NY 10128]",New York,NY,10128.0,2.0,4.0,24,0,1,1,0,asian
260,V4C5SzWmNkgPMjiCfEZ41g,Kinara II Indian Restaurant,kinara-ii-indian-restaurant-brooklyn,Indian,"[{u'alias': u'indpak', u'title': u'Indian'}]",POINT (-73.9714355469 40.6930084229),-73.9714355469,40.6930084229,"[368 Myrtle Ave, Brooklyn, NY 11205]",Brooklyn,NY,11205.0,2.0,3.5,86,0,1,1,0,asian
261,SxpRklyvo-VHZwzO2IrpXQ,Persis Biryani Indian Grill,persis-biryani-indian-grill-jersey-city-3,Indian,"[{u'alias': u'indpak', u'title': u'Indian'}]",POINT (-74.06465 40.7353),-74.06465,40.7353,"[789 Newark Ave, Jersey City, NJ 07306]",Jersey City,NJ,7306.0,2.0,4.0,29,0,1,1,0,asian
262,oX0xsDBmBoFuAws5gfbs2Q,Chateau Haveli,chateau-haveli-forest-hills,Indian,"[{u'alias': u'indpak', u'title': u'Indian'}]",POINT (-73.832778 40.7159711),-73.832778,40.715971100000004,"[11633 Queens Blvd, Forest Hills, NY 11375]",Forest Hills,NY,11375.0,2.0,3.0,224,0,1,1,0,asian
263,s9K99sWiITSfmq8VShUFVw,Five Star Bar & Grill,five-star-bar-and-grill-long-island-city,Indian,"[{u'alias': u'indpak', u'title': u'Indian'}, {u'alias': u'bars', u'title': u'Bars'}, {u'alias': u'tradamerican', u'title': u'American (Traditional)'}]",POINT (-73.94578 40.75096),-73.94578,40.75096,"[13-15 43rd Ave, Long Island City, NY 11101]",Long Island City,NY,11101.0,2.0,3.5,63,0,1,1,0,asian
264,KJNXC2NtxRPeu_nkk1PC4A,Punda Tibetan Restaurant,punda-tibetan-restaurant-sunnyside-3,Indian,"[{u'alias': u'himalayan', u'title': u'Himalayan/Nepalese'}, {u'alias': u'indpak', u'title': u'Indian'}]",POINT (-73.92515999999999 40.74209),-73.92515999999999,40.742090000000005,"[3935 47th Ave, Sunnyside, NY 11104]",Sunnyside,NY,11104.0,2.0,4.0,59,0,0,0,0,asian
265,_RVeBqIldnrh757oxL-b7w,Salaam Bombay,salaam-bombay-new-york,Indian,"[{u'alias': u'indpak', u'title': u'Indian'}]",POINT (-74.0105843 40.7171105),-74.0105843,40.7171105,"[319 Greenwich St, New York, NY 10013]",New York,NY,10013.0,2.0,3.0,135,0,1,1,1,asian
266,uPW_isMEB92IDrX04pLK1g,Delhi Heights,delhi-heights-jackson-heights-2,Indian,"[{u'alias': u'indpak', u'title': u'Indian'}, {u'alias': u'himalayan', u'title': u'Himalayan/Nepalese'}]",POINT (-73.89175999999999 40.7471),-73.89175999999999,40.7471,"[37-66 74th St, Jackson Heights, NY 11372]",Jackson Heights,NY,11372.0,2.0,3.5,289,0,1,1,0,asian
267,xdioStDO8FAyQiZWHJiGZQ,Rajbhog Sweets,rajbhog-sweets-jackson-heights,Indian,"[{u'alias': u'indpak', u'title': u'Indian'}]",POINT (-73.89329549999999 40.7489301),-73.8932955,40.7489301,"[7227 37th Ave, Jackson Heights, NY 11372]",Jackson Heights,NY,11372.0,1.0,4.0,171,0,1,1,0,asian
268,-GkhPQ0AVLoIAzPGfQ_SaA,Halal West Indian and American Cuisine,halal-west-indian-and-american-cuisine-brooklyn,Indian,"[{u'alias': u'indpak', u'title': u'Indian'}, {u'alias': u'pakistani', u'title': u'Pakistani'}]",POINT (-73.96012115479999 40.6582221985),-73.96012115479999,40.6582221985,"[621 Flatbush Ave, Brooklyn, NY 11230]",Brooklyn,NY,11230.0,1.0,4.5,12,0,0,0,0,asian
269,K_s7EXV9Ly5jlxyNZ39QDg,Al Aqsa Restaurant,al-aqsa-restaurant-bronx,Indian,"[{u'alias': u'indpak', u'title': u'Indian'}, {u'alias': u'breakfast_brunch', u'title': u'Breakfast & Brunch'}, {u'alias': u'bangladeshi', u'title': u'Bangladeshi'}]",POINT (-73.85483000000001 40.83623),-73.85483,40.83623,"[2107 Starling Ave, Bronx, NY 10462]",Bronx,NY,10462.0,1.0,4.0,14,0,0,0,0,asian
270,JATyH-KGyi8GH_KUVLid2w,Baadshah Indian Restaurant,baadshah-indian-restaurant-south-ozone-park,Indian,"[{u'alias': u'indpak', u'title': u'Indian'}]",POINT (-73.807 40.67459),-73.807,40.67459,"[131-10 Rockaway Blvd, South Ozone Park, NY 11420]",South Ozone Park,NY,11420.0,,5.0,3,0,1,1,0,asian
271,ODpSYoZ8fkaX3UaDzBLhsg,Kamal Palace,kamal-palace-north-arlington,Indian,"[{u'alias': u'indpak', u'title': u'Indian'}]",POINT (-74.12640999999999 40.79841),-74.12640999999999,40.79841,"[623 Ridge Rd, North Arlington, NJ 07031]",North Arlington,NJ,7031.0,2.0,4.0,156,0,1,1,0,asian
272,Bft47FX6dorGwlUypMrG2w,Merit Kabab Palace,merit-kabab-palace-jackson-heights,Indian,"[{u'alias': u'indpak', u'title': u'Indian'}, {u'alias': u'himalayan', u'title': u'Himalayan/Nepalese'}, {u'alias': u'bangladeshi', u'title': u'Bangladeshi'}]",POINT (-73.89122990000001 40.74711),-73.89122990000001,40.74711,"[37-67 74th St, Jackson Heights, NY 11372]",Jackson Heights,NY,11372.0,1.0,4.0,80,0,0,0,0,asian
273,qs5aBgcT2v1BFlW-XqQS0Q,Biryani Cart,biryani-cart-new-york,Indian,"[{u'alias': u'indpak', u'title': u'Indian'}, {u'alias': u'foodtrucks', u'title': u'Food Trucks'}]",POINT (-73.98224999999999 40.75739),-73.98225,40.75739,"[46TH St And 6th Ave, New York, NY 10036]",New York,NY,10036.0,1.0,4.0,485,0,0,0,0,asian
274,kB3QyyhHFVyhGgp35Rnuew,The Kati Roll Company,the-kati-roll-company-new-york,Indian,"[{u'alias': u'indpak', u'title': u'Indian'}, {u'alias': u'halal', u'title': u'Halal'}]",POINT (-74.00095999999999 40.7296),-74.00095999999999,40.7296,"[99 MacDougal St, New York, NY 10012]",New York,NY,10012.0,1.0,4.0,793,0,1,1,0,asian
275,w2-VGvlBCMYo9ko8Y_PzAw,Masala King,masala-king-new-york,Indian,"[{u'alias': u'indpak', u'title': u'Indian'}]",POINT (-73.9819365834 40.7472101768),-73.9819365834,40.747210176799996,"[64 E 34th St, New York, NY 10016]",New York,NY,10016.0,,5.0,1,0,1,1,0,asian
276,WkN7pVHWEXpHJrIS1ohXUA,Deccan Spice,deccan-spice-new-york-5,Indian,"[{u'alias': u'indpak', u'title': u'Indian'}]",POINT (-73.98263 40.74284),-73.98263,40.74284,"[120 Lexington Ave, New York, NY 10016]",New York,NY,10016.0,2.0,4.0,87,0,1,1,1,asian
277,O5MN8tijDGzJS8uin9zQ2Q,Chef Of India,chef-of-india-jersey-city,Indian,"[{u'alias': u'indpak', u'title': u'Indian'}]",POINT (-74.04902 40.74595),-74.04902,40.74595,"[324 Central Ave, Jersey City, NJ 07307]",Jersey City,NJ,7307.0,2.0,4.0,139,0,1,1,0,asian
278,gWuHmSQ8G5FiKv-rEogwvA,Pongal,pongal-new-york-2,Indian,"[{u'alias': u'indpak', u'title': u'Indian'}, {u'alias': u'vegetarian', u'title': u'Vegetarian'}]",POINT (-73.9829 40.74245999999999),-73.9829,40.742459999999994,"[110 Lexington Ave, New York, NY 10016]",New York,NY,10016.0,2.0,3.5,379,0,1,1,0,asian
279,yx8cpBwPttpdBvm4V1EawQ,Joy Curry & Tandoor,joy-curry-and-tandoor-new-york-2,Indian,"[{u'alias': u'indpak', u'title': u'Indian'}]",POINT (-73.97361172020001 40.75352),-73.97361172020001,40.75352,"[148 E 46th St, New York, NY 10017]",New York,NY,10017.0,1.0,3.5,155,0,1,1,0,asian
280,oSMFe-10TyH40NIXG0Zahw,Vaibhav Indian Spice Journey,vaibhav-indian-spice-journey-jersey-city-6,Indian,"[{u'alias': u'indpak', u'title': u'Indian'}, {u'alias': u'chinese', u'title': u'Chinese'}, {u'alias': u'halal', u'title': u'Halal'}]",POINT (-74.0624069 40.73503),-74.0624069,40.73503,"[737 Newark Ave, Jersey City, NJ 07306]",Jersey City,NJ,7306.0,2.0,3.5,335,0,1,1,0,asian
281,mNf8XWHW8peGNhCr9HNWQw,Mirch Grill And Clay Oven,mirch-grill-and-clay-oven-jamaica,Indian,"[{u'alias': u'indpak', u'title': u'Indian'}, {u'alias': u'halal', u'title': u'Halal'}, {u'alias': u'steak', u'title': u'Steakhouses'}]",POINT (-73.78996654620001 40.7119631435),-73.7899665462,40.7119631435,"[172-27 Hillside Ave, Jamaica, NY 11432]",Jamaica,NY,11432.0,2.0,4.0,86,0,1,0,0,asian
282,ZkpKRf_AenlKegg2-NSA3g,Royal Bangladesh Indian Restaurant,royal-bangladesh-indian-restaurant-new-york,Indian,"[{u'alias': u'indpak', u'title': u'Indian'}, {u'alias': u'bangladeshi', u'title': u'Bangladeshi'}]",POINT (-73.986648 40.726322),-73.986648,40.726321999999996,"[93 1st Ave, New York, NY 10003]",New York,NY,10003.0,1.0,2.5,162,0,1,1,0,asian
283,CPBVjdezPyeBTxW1q6R1Zg,Moharani Indian Takeaway Restaurant,moharani-indian-takeaway-restaurant-greenpoint,Indian,"[{u'alias': u'indpak', u'title': u'Indian'}]",POINT (-73.946939 40.727267),-73.946939,40.727267,"[185 Norman Ave, Greenpoint, NY 11222]",Greenpoint,NY,11222.0,2.0,3.5,36,0,1,1,0,asian
284,SExVenfR3ScUzIJHdUpxuw,Aman,aman-bronx,Indian,"[{u'alias': u'pakistani', u'title': u'Pakistani'}, {u'alias': u'indpak', u'title': u'Indian'}, {u'alias': u'halal', u'title': u'Halal'}]",POINT (-73.8794078 40.885147),-73.8794078,40.885146999999996,"[3594 Jerome Ave, Bronx, NY 10452]",Bronx,NY,10452.0,1.0,4.5,15,0,0,0,0,asian
285,VvIzNbkl4PDPzutZdxWCJw,Ittadi Garden & Grill,ittadi-garden-and-grill-jackson-heights,Indian,"[{u'alias': u'indpak', u'title': u'Indian'}, {u'alias': u'bangladeshi', u'title': u'Bangladeshi'}]",POINT (-73.89222650000001 40.7472744),-73.8922265,40.7472744,"[7307 37th Rd, Jackson Heights, NY 11372]",Jackson Heights,NY,11372.0,2.0,4.0,18,0,0,0,0,asian
286,JvV8sTgUX6abRQPzb3hLgg,New Curry Hut,new-curry-hut-new-york-3,Indian,"[{u'alias': u'indpak', u'title': u'Indian'}]",POINT (-73.99347 40.75674),-73.99347,40.75674,"[534 9th Ave, New York, NY 10018]",New York,NY,10018.0,1.0,3.5,92,0,1,1,0,asian
287,llzZ19xTIrueN5XBZi4zWg,Indian King Biryani House,indian-king-biryani-house-new-york,Indian,"[{u'alias': u'foodtrucks', u'title': u'Food Trucks'}, {u'alias': u'indpak', u'title': u'Indian'}]",POINT (-74.0107886719 40.7090899839),-74.0107886719,40.7090899839,"[140 Broadway, New York, NY 10005]",New York,NY,10005.0,1.0,4.0,28,0,0,0,0,asian
288,jOVE1CWC00mmI_4Y3xuOUg,Vintage Curry,vintage-curry-jamaica,Indian,"[{u'alias': u'indpak', u'title': u'Indian'}, {u'alias': u'halal', u'title': u'Halal'}]",POINT (-73.79359509999999 40.7101722),-73.79359509999999,40.7101722,"[8777 168th Pl, Jamaica, NY 11432]",Jamaica,NY,11432.0,2.0,3.5,50,0,1,1,1,asian
289,o5sUOmtzcHAeSWtUuFJ00g,Anjappar Chettinad Restaurant,anjappar-chettinad-restaurant-new-york-2,Indian,"[{u'alias': u'indpak', u'title': u'Indian'}]",POINT (-73.982795 40.742603),-73.982795,40.742603,"[116 Lexington Ave, New York, NY 10016]",New York,NY,10016.0,2.0,3.0,256,0,1,1,0,asian
290,S3dtt6qNyYfdF-I4rZTbXw,Graffitti Earth,graffitti-earth-new-york,Indian,"[{u'alias': u'indpak', u'title': u'Indian'}, {u'alias': u'persian', u'title': u'Persian/Iranian'}, {u'alias': u'vegetarian', u'title': u'Vegetarian'}]",POINT (-74.0071884 40.71593789999999),-74.0071884,40.71593789999999,"[190 Church St, New York, NY 10013]",New York,NY,10013.0,2.0,3.5,10,0,0,0,0,asian
291,9x95RpLEIDRWG2Y9w4qz4Q,INDAY,inday-new-york-5,Indian,"[{u'alias': u'indpak', u'title': u'Indian'}]",POINT (-73.97353000000001 40.75233),-73.97353000000001,40.75233,"[708 3rd Ave, 44th Street, New York, NY 10017]",New York,NY,10017.0,,4.0,10,0,0,0,0,asian
292,CP5zlAOYYne7uhzUC1LyuQ,Annam Brahma,annam-brahma-jamaica,Indian,"[{u'alias': u'vegetarian', u'title': u'Vegetarian'}, {u'alias': u'indpak', u'title': u'Indian'}]",POINT (-73.8012683279 40.7128253499),-73.8012683279,40.7128253499,"[8443 164th St, Jamaica, NY 11432]",Jamaica,NY,11432.0,1.0,4.0,65,0,0,0,0,asian
293,0_ONgLkWOmGnjhCecpZPYQ,Samossa Bites,samossa-bites-astoria-24,Indian,"[{u'alias': u'indpak', u'title': u'Indian'}]",POINT (-73.92876099999999 40.757283),-73.928761,40.757283,"[35-27 31st St, Astoria, NY 11106]",Astoria,NY,11106.0,2.0,3.5,52,0,1,1,1,asian
294,FdpEdKi4YbTu4t7B0tufIQ,Punjabi Dhaba Catering & Sweets,punjabi-dhaba-catering-and-sweets-south-richmond-hill,Indian,"[{u'alias': u'catering', u'title': u'Caterers'}, {u'alias': u'indpak', u'title': u'Indian'}]",POINT (-73.82522299999999 40.689913),-73.825223,40.689913,"[11916 101st Ave, South Richmond Hill, NY 11419]",South Richmond Hill,NY,11419.0,1.0,4.5,15,0,0,0,0,asian
295,KU8N7dW6vgOA_-HdVL8o8Q,Delhi Masala Express,delhi-masala-express-new-york-3,Indian,"[{u'alias': u'indpak', u'title': u'Indian'}]",POINT (-73.94493419680001 40.834448546),-73.9449341968,40.834448546,"[3789 Broadway, New York, NY 10032]",New York,NY,10032.0,2.0,4.0,10,0,1,1,0,asian
296,NHoKf98A1Hi8htHEfeptgw,Sapid Indian Food,sapid-indian-food-brooklyn,Indian,"[{u'alias': u'indpak', u'title': u'Indian'}, {u'alias': u'vegetarian', u'title': u'Vegetarian'}]",POINT (-73.96399 40.6797899),-73.96399,40.679789899999996,"[595 Washington Ave, Brooklyn, NY 11238]",Brooklyn,NY,11238.0,2.0,3.5,133,0,1,1,0,asian
297,XYusVoJKFBU_-LIGYlkZeQ,Punjab Restaurant,punjab-restaurant-brooklyn,Indian,"[{u'alias': u'indpak', u'title': u'Indian'}, {u'alias': u'pakistani', u'title': u'Pakistani'}]",POINT (-73.96901 40.64065),-73.96901,40.64065,"[691 Coney Island Ave, Brooklyn, NY 11218]",Brooklyn,NY,11218.0,1.0,4.0,23,0,1,1,0,asian
298,lIXVm16VchbDXOf7v4hxMA,Haandi Restaurant,haandi-restaurant-new-york,Indian,"[{u'alias': u'indpak', u'title': u'Indian'}, {u'alias': u'pakistani', u'title': u'Pakistani'}, {u'alias': u'buffets', u'title': u'Buffets'}]",POINT (-73.98236999999999 40.7424),-73.98236999999999,40.7424,"[113 Lexington Ave, New York, NY 10016]",New York,NY,10016.0,1.0,3.5,262,0,1,0,0,asian
299,lPvxWBM1ruaUtOr7gI-yrA,Art Of Spice,art-of-spice-hackensack,Indian,"[{u'alias': u'indpak', u'title': u'Indian'}]",POINT (-74.04319800569999 40.8832465553),-74.04319800569999,40.883246555300005,"[159 Main St, Hackensack, NJ 07601]",Hackensack,NJ,7601.0,2.0,4.0,217,0,1,1,0,asian
300,11joI1ETb1Vh6k5NoGhnaw,Panahar,panahar-queens,Indian,"[{u'alias': u'indpak', u'title': u'Indian'}, {u'alias': u'bangladeshi', u'title': u'Bangladeshi'}]",POINT (-73.81318 40.70444000000001),-73.81318,40.704440000000005,"[139-32 Hillside Ave, Queens, NY 11435]",Queens,NY,11435.0,1.0,4.0,7,0,1,1,0,asian
301,KDr72efaFAcQXccdA4yoaw,Cas West Indian & American Restaurant,cas-west-indian-and-american-restaurant-brooklyn,Indian,"[{u'alias': u'caribbean', u'title': u'Caribbean'}, {u'alias': u'indpak', u'title': u'Indian'}]",POINT (-73.9415099 40.67525999999999),-73.9415099,40.675259999999994,"[135 Kingston Ave, Brooklyn, NY 11213]",Brooklyn,NY,11213.0,1.0,4.5,10,0,0,0,0,asian
302,aczqK-esIyqhyk7QLqcc1A,TAJ,taj-new-york-9,Indian,"[{u'alias': u'indpak', u'title': u'Indian'}, {u'alias': u'musicvenues', u'title': u'Music Venues'}, {u'alias': u'beerbar', u'title': u'Beer Bar'}]",POINT (-73.9879390597 40.7270453396),-73.9879390597,40.727045339600004,"[310 E 6th St, New York, NY 10003]",New York,NY,10003.0,2.0,3.5,216,0,1,1,0,asian
303,PF9sOfpRWjQGviligM-lww,City Spice Cafe,city-spice-cafe-new-york,Indian,"[{u'alias': u'indpak', u'title': u'Indian'}, {u'alias': u'halal', u'title': u'Halal'}]",POINT (-73.98135000000001 40.74068),-73.98135,40.74068,"[203 E 26th St, New York, NY 10010]",New York,NY,10010.0,1.0,4.0,5,0,1,1,0,asian
304,NH7Ws65ZwlmOosiblfGTRw,Spice Hut Indian Restaurant,spice-hut-indian-restaurant-new-york,Indian,"[{u'alias': u'indpak', u'title': u'Indian'}]",POINT (-73.93953 40.79411),-73.93953,40.794109999999996,"[2172 2nd Ave, New York, NY 10029]",New York,NY,10029.0,2.0,3.0,45,0,1,1,1,asian
305,zUs0dYx8zPKTkFiLdQKf_Q,Punjabi Kabab and Gyro,punjabi-kabab-and-gyro-south-richmond-hill,Indian,"[{u'alias': u'indpak', u'title': u'Indian'}, {u'alias': u'pakistani', u'title': u'Pakistani'}, {u'alias': u'greek', u'title': u'Greek'}]",POINT (-73.83531194220001 40.6874110143),-73.83531194220001,40.6874110143,"[108-03 101st Ave, South Richmond Hill, NY 11419]",South Richmond Hill,NY,11419.0,2.0,4.0,27,0,1,1,0,asian
306,nBoOm-TAhRvbcDkHfKOwGg,Swagat Indian Restaurant,swagat-indian-restaurant-new-york-3,Indian,"[{u'alias': u'indpak', u'title': u'Indian'}]",POINT (-73.99319399999999 40.748161),-73.99319399999999,40.748160999999996,"[205 W 29th St, New York, NY 10001]",New York,NY,10001.0,1.0,3.0,98,0,1,1,0,asian
307,LaBJkwwC1lrYtooJQkvh-A,Al Nour,al-nour-woodside,Indian,"[{u'alias': u'halal', u'title': u'Halal'}, {u'alias': u'chinese', u'title': u'Chinese'}, {u'alias': u'indpak', u'title': u'Indian'}]",POINT (-73.9001368 40.7461139),-73.9001368,40.7461139,"[39-04 64th St, Woodside, NY 11377]",Woodside,NY,11377.0,1.0,4.0,15,0,1,1,0,asian
308,XUYR7XBtPn0cIAn5hCl4Cw,Curry Spot,curry-spot-bronx,Indian,"[{u'alias': u'indpak', u'title': u'Indian'}]",POINT (-73.86706 40.89776),-73.86706,40.89776,"[4268 Katonah Ave, Bronx, NY 10470]",Bronx,NY,10470.0,2.0,3.5,74,0,1,1,0,asian
309,fjjzAn0j6zCs2SNViuNfwQ,Kailash Parbat,kailash-parbat-new-york-2,Indian,"[{u'alias': u'indpak', u'title': u'Indian'}, {u'alias': u'vegetarian', u'title': u'Vegetarian'}]",POINT (-73.98273 40.74206),-73.98273,40.742059999999995,"[99 Lexington Ave, New York, NY 10016]",New York,NY,10016.0,2.0,3.5,220,0,1,1,1,asian
310,R0FryAIetxATjdYwOdy1aQ,Bay Leaf,bay-leaf-brooklyn-2,Indian,"[{u'alias': u'indpak', u'title': u'Indian'}]",POINT (-73.96043643430001 40.660041848),-73.96043643430001,40.660041848,"[561 Flatbush Ave, Brooklyn, NY 11225]",Brooklyn,NY,11225.0,2.0,2.5,70,0,1,1,0,asian
311,SJ6gBwqF219nV6dAZBt93Q,Indian Food & Falafel,indian-food-and-falafel-bay-ridge,Indian,"[{u'alias': u'indpak', u'title': u'Indian'}, {u'alias': u'falafel', u'title': u'Falafel'}]",POINT (-74.020967 40.634593),-74.020967,40.634593,"[6742 5th Ave, Bay Ridge, NY 11220]",Bay Ridge,NY,11220.0,1.0,3.5,24,0,1,1,0,asian
312,NDxfIV_QMyXaj4Oa4azXTg,New York Pulao Kabab,new-york-pulao-kabab-long-island-city,Indian,"[{u'alias': u'indpak', u'title': u'Indian'}, {u'alias': u'pakistani', u'title': u'Pakistani'}, {u'alias': u'desserts', u'title': u'Desserts'}]",POINT (-73.9237152 40.75359520000001),-73.9237152,40.75359520000001,"[36-02 Steinway St, Long Island City, NY 11101]",Long Island City,NY,11101.0,1.0,4.5,12,0,1,1,0,asian
313,vS5WZNErrgWvHtiO3CTmqA,Sheezan Restaurant,sheezan-restaurant-new-york-3,Indian,"[{u'alias': u'indpak', u'title': u'Indian'}, {u'alias': u'pakistani', u'title': u'Pakistani'}, {u'alias': u'halal', u'title': u'Halal'}]",POINT (-74.00717 40.71566),-74.00717,40.71566,"[183 Church St, New York, NY 10007]",New York,NY,10007.0,1.0,3.5,20,0,1,1,0,asian
314,eXrk95smyEBBIOJigCvo7Q,Punjabi Diner,punjabi-diner-queens,Indian,"[{u'alias': u'indpak', u'title': u'Indian'}]",POINT (-73.8283621312 40.6893308825),-73.8283621312,40.6893308825,"[116-1 101st Ave, Queens, NY 11419]",Queens,NY,11419.0,2.0,3.0,8,0,1,1,0,asian
315,ATrDmKiZ-YrAcG3hR7LLgg,Tadka Fine Indian Cuisine,tadka-fine-indian-cuisine-secaucus-2,Indian,"[{u'alias': u'indpak', u'title': u'Indian'}]",POINT (-74.05819 40.79015),-74.05819,40.79015,"[1297 Paterson Plank Rd, Secaucus, NJ 07094]",Secaucus,NJ,7094.0,2.0,3.5,85,0,1,1,0,asian
316,y-y2rMiSf5alNXMJTpTuDg,Mehak,mehak-kew-gardens-3,Indian,"[{u'alias': u'indpak', u'title': u'Indian'}, {u'alias': u'pakistani', u'title': u'Pakistani'}]",POINT (-73.82961 40.70895),-73.82961,40.70895,"[8306 Austin St, Kew Gardens, NY 11415]",Kew Gardens,NY,11415.0,2.0,3.5,137,0,1,1,0,asian
317,NqnCmOlPIJ_QBQzvZ28djA,Sapthagiri Taste Of India,sapthagiri-taste-of-india-jersey-city-2,Indian,"[{u'alias': u'indpak', u'title': u'Indian'}, {u'alias': u'kosher', u'title': u'Kosher'}, {u'alias': u'vegetarian', u'title': u'Vegetarian'}]",POINT (-74.06503334350001 40.7357168004),-74.0650333435,40.7357168004,"[804 Newark Ave, Jersey City, NJ 07306]",Jersey City,NJ,7306.0,2.0,3.5,354,0,1,1,0,asian
318,32nkcoqPk0c1BYuka2enqw,Qasim Restaurant,qasim-restaurant-new-york,Indian,"[{u'alias': u'indpak', u'title': u'Indian'}]",POINT (-73.99825 40.75043),-73.99825,40.75043,"[338 9th Ave, New York, NY 10001]",New York,NY,10001.0,1.0,4.5,3,0,0,0,0,asian
319,T5aGLWBjIZoV0pSW80nJXA,Amiya,amiya-jersey-city-4,Indian,"[{u'alias': u'indpak', u'title': u'Indian'}]",POINT (-74.035177 40.719811),-74.035177,40.719811,"[160 Greene St, Jersey City, NJ 07311]",Jersey City,NJ,7311.0,2.0,3.5,248,0,1,1,0,asian
320,17hj-J-E7UFki3Brshu0lQ,Taste Of India,taste-of-india-teaneck,Indian,"[{u'alias': u'indpak', u'title': u'Indian'}]",POINT (-74.0123522 40.88578829999999),-74.0123522,40.885788299999994,"[166 Cedar Ln, Teaneck, NJ 07666]",Teaneck,NJ,7666.0,2.0,4.0,46,0,1,1,0,asian
