,id,name,alias,cat,categories,geometry,longitude,latitude,address,city,state,zipcode,price,rating,reviews,closed,tr_pickup,tr_delivery,tr_restaurant_reservation,region
0,kXnwXZ5KOQmprxNrmXYuxg,Puerto Viejo,puerto-viejo-brooklyn,Dominican,"[{'alias': 'dominican', 'title': 'Dominican'}]",POINT (-73.96214000000001 40.67885),-73.96214,40.67885,"['564 Grand Ave', 'Brooklyn, NY 11238']",Brooklyn,NY,11238.0,2.0,4.0,363,0,1,1,0,hispanic
1,evQ9dNp7Fa3OFPwWXnojrQ,Lali Restaurant,lali-restaurant-new-york,Dominican,"[{'alias': 'dominican', 'title': 'Dominican'}]",POINT (-73.99391899999999 40.76128),-73.99391899999999,40.76128,"['630 10th Ave', 'New York, NY 10036']",New York,NY,10036.0,1.0,4.5,147,0,0,0,0,hispanic
2,BEnhDZrulF_-2Fl-nleWag,La Cabana,la-cabana-corona-3,Dominican,"[{'alias': 'dominican', 'title': 'Dominican'}]",POINT (-73.86261999999999 40.7503),-73.86261999999999,40.7503,"['39-17 103rd St', 'Corona, NY 11368']",Corona,NY,11368.0,1.0,4.5,133,0,0,0,0,hispanic
3,154ILTDY2x4liySxKmO4cw,Zoralie Restaurant,zoralie-restaurant-new-york,Dominican,"[{'alias': 'dominican', 'title': 'Dominican'}, {'alias': 'spanish', 'title': 'Spanish'}, {'alias': 'puertorican', 'title': 'Puerto Rican'}]",POINT (-73.9902253076434 40.7649401427866),-73.9902253076434,40.7649401427866,"['449 W 51st St', 'New York, NY 10019']",New York,NY,10019.0,1.0,4.5,184,0,1,1,0,hispanic
4,U1rA6SLeS_jMwqm1Vo0yaQ,El Gran Castillo De Jagua,el-gran-castillo-de-jagua-brooklyn,Dominican,"[{'alias': 'latin', 'title': 'Latin American'}, {'alias': 'dominican', 'title': 'Dominican'}]",POINT (-73.971981 40.676993),-73.971981,40.676992999999996,"['355 Flatbush Ave', 'Brooklyn, NY 11238']",Brooklyn,NY,11238.0,1.0,4.0,207,0,0,0,0,hispanic
5,31XD1NbLOoZ-cclsfdf97Q,El Nuevo Cibao,el-nuevo-cibao-brooklyn-3,Dominican,"[{'alias': 'latin', 'title': 'Latin American'}, {'alias': 'dominican', 'title': 'Dominican'}]",POINT (-73.99121 40.68584),-73.99121,40.68584,"['172 Smith St', 'Brooklyn, NY 11201']",Brooklyn,NY,11201.0,2.0,4.0,143,0,1,1,0,hispanic
6,hw8ziubXsFocun6KR04VVg,Malecon Restaurant,malecon-restaurant-new-york-2,Dominican,"[{'alias': 'latin', 'title': 'Latin American'}, {'alias': 'breakfast_brunch', 'title': 'Breakfast & Brunch'}, {'alias': 'dominican', 'title': 'Dominican'}]",POINT (-73.938827 40.846511),-73.938827,40.846511,"['4141 Broadway', 'New York, NY 10033']",New York,NY,10033.0,2.0,4.0,602,0,1,1,0,hispanic
7,3hCi3e-Ea62tdSdcdioR1g,El Rinconcito,el-rinconcito-new-york,Dominican,"[{'alias': 'latin', 'title': 'Latin American'}, {'alias': 'puertorican', 'title': 'Puerto Rican'}, {'alias': 'dominican', 'title': 'Dominican'}]",POINT (-73.977 40.72553),-73.977,40.72553,"['408 E 10th St', 'New York, NY 10009']",New York,NY,10009.0,1.0,4.5,49,0,0,0,0,hispanic
8,oRoXd9qWF0muVu_ht6yr-g,El Castillo De Jagua,el-castillo-de-jagua-brooklyn-3,Dominican,"[{'alias': 'spanish', 'title': 'Spanish'}, {'alias': 'dominican', 'title': 'Dominican'}]",POINT (-73.95992003381251 40.6567179534208),-73.95992003381251,40.656717953420795,"['679 Flatbush Ave', 'Brooklyn, NY 11225']",Brooklyn,NY,11225.0,1.0,4.0,57,0,0,0,0,hispanic
9,4CObV3XU8VQ6nXeVS4vO0A,Margon,margon-new-york,Dominican,"[{'alias': 'cuban', 'title': 'Cuban'}, {'alias': 'dominican', 'title': 'Dominican'}]",POINT (-73.98354291915891 40.7580177305906),-73.98354291915891,40.7580177305906,"['136 W 46th St', 'New York, NY 10036']",New York,NY,10036.0,1.0,4.0,639,0,1,1,0,hispanic
10,Pn_KLz8cue1P0AWQgFw1Zg,Gena's Grill,genas-grill-new-york,Dominican,"[{'alias': 'dominican', 'title': 'Dominican'}, {'alias': 'puertorican', 'title': 'Puerto Rican'}]",POINT (-73.982955 40.730327),-73.982955,40.730327,"['210 1st Ave', 'New York, NY 10009']",New York,NY,10009.0,1.0,4.0,145,0,0,0,0,hispanic
11,P4TeoFeySfz_s8h0xNzEvA,Exquisito,exquisito-brooklyn-2,Dominican,"[{'alias': 'latin', 'title': 'Latin American'}, {'alias': 'dominican', 'title': 'Dominican'}]",POINT (-73.91244374215159 40.6992332158417),-73.9124437421516,40.6992332158417,"['1542 Gates Ave', 'Brooklyn, NY 11237']",Brooklyn,NY,11237.0,1.0,4.0,12,0,1,1,0,hispanic
12,-jcEr3NrgoQobKNJPdX8mg,Fefita's Restaurant,fefitas-restaurant-brooklyn,Dominican,"[{'alias': 'dominican', 'title': 'Dominican'}]",POINT (-73.93361659999999 40.6693115),-73.9336166,40.6693115,"['1045 Eastern Pkwy', 'Brooklyn, NY 11213']",Brooklyn,NY,11213.0,1.0,5.0,12,0,0,0,0,hispanic
13,X90sgtmcR-FdUndlbA3EyQ,Santo Domingo Restaurant,santo-domingo-restaurant-brooklyn-2,Dominican,"[{'alias': 'dominican', 'title': 'Dominican'}, {'alias': 'puertorican', 'title': 'Puerto Rican'}, {'alias': 'latin', 'title': 'Latin American'}]",POINT (-73.87888000000001 40.66775),-73.87888000000001,40.66775,"['862 New Lots Ave', 'Brooklyn, NY 11208']",Brooklyn,NY,11208.0,1.0,4.5,16,0,1,1,0,hispanic
14,p8SNfFBToZNwjepsNcJv6w,R A Deli Dominican Food,r-a-deli-dominican-food-staten-island,Dominican,"[{'alias': 'dominican', 'title': 'Dominican'}]",POINT (-74.16273490249129 40.6257554377981),-74.1627349024913,40.6257554377981,"['2180 Forest Ave', 'Staten Island, NY 10303']",Staten Island,NY,10303.0,1.0,4.0,33,0,0,0,0,hispanic
15,wSlGpwSIecbqy1KRSO_YVg,El Castillo De Jagua,el-castillo-de-jagua-new-york,Dominican,"[{'alias': 'latin', 'title': 'Latin American'}, {'alias': 'dominican', 'title': 'Dominican'}, {'alias': 'spanish', 'title': 'Spanish'}]",POINT (-73.98787 40.71977),-73.98787,40.719770000000004,"['113 Rivington St', 'New York, NY 10002']",New York,NY,10002.0,1.0,3.5,197,0,0,1,0,hispanic
16,A0kA5AIRi_A0dlF3pv0FcA,La Barca Restaurant,la-barca-restaurant-new-york,Dominican,"[{'alias': 'dominican', 'title': 'Dominican'}]",POINT (-73.94203 40.8375),-73.94203,40.8375,"['3892 Broadway', 'New York, NY 10032']",New York,NY,10032.0,1.0,4.0,45,0,1,1,0,hispanic
17,-eddOmvmXDz7WmcKFrZXHg,DOS31 Cocina + Bar,dos31-cocina-bar-brooklyn,Dominican,"[{'alias': 'bars', 'title': 'Bars'}, {'alias': 'latin', 'title': 'Latin American'}, {'alias': 'dominican', 'title': 'Dominican'}]",POINT (-73.95883719999999 40.7105846),-73.95883719999999,40.710584600000004,"['231 S 4th St', 'Brooklyn, NY 11211']",Brooklyn,NY,11211.0,2.0,4.5,20,0,1,1,0,hispanic
18,B73kcWdUixrovBU2JXjoZA,El Gran Canario,el-gran-canario-new-york,Dominican,"[{'alias': 'dominican', 'title': 'Dominican'}, {'alias': 'breakfast_brunch', 'title': 'Breakfast & Brunch'}]",POINT (-73.9538214151183 40.7105573761851),-73.9538214151183,40.7105573761851,"['174 Borinquen Pl', 'New York, NY 11211']",New York,NY,11211.0,1.0,4.0,35,0,1,1,0,hispanic
19,F0R85lX83MSfvgsJ3sXI4g,Sabrosura Dominicana,sabrosura-dominicana-woodside,Dominican,"[{'alias': 'latin', 'title': 'Latin American'}, {'alias': 'dominican', 'title': 'Dominican'}]",POINT (-73.9181366 40.7388916),-73.9181366,40.7388916,"['47-10 48th Ave', 'Woodside, NY 11377']",Woodside,NY,11377.0,1.0,3.5,7,0,0,0,0,hispanic
20,UpCHmvRNZWHaLsf6PHdDug,La Isla Restaurant,la-isla-restaurant-brooklyn-2,Dominican,"[{'alias': 'dominican', 'title': 'Dominican'}, {'alias': 'puertorican', 'title': 'Puerto Rican'}]",POINT (-73.958061 40.708728),-73.958061,40.708728,"['293 Broadway', 'Brooklyn, NY 11211']",Brooklyn,NY,11211.0,1.0,4.0,42,0,0,0,0,hispanic
21,RgXT9Pkui7IuWua2K9yuHA,Rossy's Bakery,rossys-bakery-new-york,Dominican,"[{'alias': 'bakeries', 'title': 'Bakeries'}, {'alias': 'dominican', 'title': 'Dominican'}]",POINT (-73.98159 40.72184),-73.98159,40.72184,"['242 E 3rd St', 'New York, NY 10009']",New York,NY,10009.0,1.0,4.0,49,0,0,0,0,hispanic
22,XUnK_1giqqoG3O0trpQJew,Listo El Chimi cafeteria,listo-el-chimi-cafeteria-ridgewood,Dominican,"[{'alias': 'dominican', 'title': 'Dominican'}, {'alias': 'cafeteria', 'title': 'Cafeteria'}]",POINT (-73.90732200843441 40.6998583557259),-73.9073220084344,40.6998583557259,"['55-30 Myrtle Ave', 'Ridgewood, NY 11385']",Ridgewood,NY,11385.0,1.0,4.0,37,0,1,1,0,hispanic
23,_ur5IcT5Vvy2VaWV817GTQ,Primavera Restaurant,primavera-restaurant-brooklyn,Dominican,"[{'alias': 'latin', 'title': 'Latin American'}, {'alias': 'dominican', 'title': 'Dominican'}]",POINT (-73.973457 40.64558),-73.973457,40.645579999999995,"['623 Church Ave', 'Brooklyn, NY 11218']",Brooklyn,NY,11218.0,1.0,4.0,17,0,1,1,0,hispanic
24,cw48jFQTYxfEFcVF2yNXTw,El Chevere,el-chevere-new-york,Dominican,"[{'alias': 'puertorican', 'title': 'Puerto Rican'}, {'alias': 'spanish', 'title': 'Spanish'}, {'alias': 'dominican', 'title': 'Dominican'}]",POINT (-73.94306999999999 40.79409),-73.94306999999999,40.794090000000004,"['2000 3rd Ave', 'New York, NY 10029']",New York,NY,10029.0,1.0,4.0,21,0,0,0,0,hispanic
25,IjQfRNt5Xp4AQEyEJfJ46Q,Don Luis,don-luis-elmhurst,Dominican,"[{'alias': 'dominican', 'title': 'Dominican'}]",POINT (-73.8677955 40.74198070000001),-73.8677955,40.741980700000006,"['94-66B Corona Ave', 'Elmhurst, NY 11373']",Elmhurst,NY,11373.0,1.0,4.5,17,0,0,0,0,hispanic
26,0RRl-QoQ9XcBJVwSIoX9wg,La Chiqui Restaurant,la-chiqui-restaurant-bronx,Dominican,"[{'alias': 'dominican', 'title': 'Dominican'}]",POINT (-73.92388916621509 40.82335286489879),-73.92388916621509,40.823352864898794,"['760 Grand Concourse', 'Bronx Ny', 'Bronx, NY 10451']",Bronx,NY,10451.0,2.0,5.0,4,0,1,1,0,hispanic
27,pMI96Z7xOo5RGT-tN3AedQ,International Restaurant,international-restaurant-brooklyn,Dominican,"[{'alias': 'latin', 'title': 'Latin American'}, {'alias': 'dominican', 'title': 'Dominican'}, {'alias': 'cuban', 'title': 'Cuban'}]",POINT (-74.00726299999999 40.648432),-74.007263,40.648432,"['4408 5th Ave', 'Brooklyn, NY 11220']",Brooklyn,NY,11220.0,2.0,3.5,84,0,1,1,0,hispanic
28,rksFeEbHSX4AON99nLVbMA,Cibao Restaurant,cibao-restaurant-new-york,Dominican,"[{'alias': 'dominican', 'title': 'Dominican'}]",POINT (-73.98484000000001 40.71916),-73.98484,40.719159999999995,"['72 Clinton St', 'New York, NY 10002']",New York,NY,10002.0,1.0,3.5,87,0,1,0,0,hispanic
29,UYHlResz9YaunMnWU6XaPQ,El Campeon De Los Pollos Restaurant,el-campeon-de-los-pollos-restaurant-south-ozone-park,Dominican,"[{'alias': 'spanish', 'title': 'Spanish'}, {'alias': 'dominican', 'title': 'Dominican'}, {'alias': 'latin', 'title': 'Latin American'}]",POINT (-73.82047900000001 40.678019),-73.820479,40.678019,"['111-06A Lefferts Blvd', 'South Ozone Park, NY 11420']",South Ozone Park,NY,11420.0,1.0,4.0,76,0,0,0,0,hispanic
30,0qpFKEJnLnKdBUm8woON1Q,The Original Espinal Deli,the-original-espinal-deli-woodside,Dominican,"[{'alias': 'dominican', 'title': 'Dominican'}, {'alias': 'delis', 'title': 'Delis'}]",POINT (-73.90316369999999 40.7537111),-73.9031637,40.753711100000004,"['57-19 Northern Blvd', 'Woodside, NY 11377']",Woodside,NY,11377.0,,4.5,5,0,0,0,0,hispanic
31,uAS5ASsS9CjoMLGRYWGvAg,Puerto Plata Restaurant,puerto-plata-restaurant-jamaica-2,Dominican,"[{'alias': 'dominican', 'title': 'Dominican'}]",POINT (-73.805026 40.702244),-73.805026,40.702244,"['14919 Jamaica Ave', 'Jamaica, NY 11435']",Jamaica,NY,11435.0,1.0,4.0,32,0,0,0,0,hispanic
32,E3CvO6bRu8Kp0RzDgcvkig,El Malecon Restaurant II,el-malecon-restaurant-ii-new-york,Dominican,"[{'alias': 'latin', 'title': 'Latin American'}, {'alias': 'dominican', 'title': 'Dominican'}]",POINT (-73.96991700000001 40.795027),-73.96991700000001,40.795027000000005,"['764 Amsterdam Ave', 'New York, NY 10025']",New York,NY,10025.0,2.0,3.5,241,0,0,1,0,hispanic
33,MqW5xAuGsytCizpx8Pls5A,Boca Chica,boca-chica-corona,Dominican,"[{'alias': 'latin', 'title': 'Latin American'}, {'alias': 'dominican', 'title': 'Dominican'}]",POINT (-73.8700001694646 40.7516685051303),-73.8700001694646,40.7516685051303,"['96-20 37th Ave', 'Corona, NY 11368']",Corona,NY,11368.0,2.0,4.0,29,0,0,0,0,hispanic
34,wInSwMA0YcL25Lu-uIhw-A,Barceló,barceló-ridgewood,Dominican,"[{'alias': 'dominican', 'title': 'Dominican'}]",POINT (-73.9074969291687 40.7001410983934),-73.9074969291687,40.700141098393395,"['5533 Myrtle Ave', 'Ridgewood, NY 11385']",Ridgewood,NY,11385.0,,2.5,3,0,0,0,0,hispanic
35,UcODjeMwv944wyjdmnsRQQ,Quezada Restaurant,quezada-restaurant-new-york,Dominican,"[{'alias': 'dominican', 'title': 'Dominican'}]",POINT (-73.95618399999999 40.640697),-73.956184,40.640696999999996,"['1212 Flatbush Ave', 'New York, NY 11226']",New York,NY,11226.0,1.0,3.5,10,0,1,1,0,hispanic
36,gS8khSH2RcKcUlHW2GM-hQ,Quisqueya Restaurant,quisqueya-restaurant-corona,Dominican,"[{'alias': 'latin', 'title': 'Latin American'}, {'alias': 'dominican', 'title': 'Dominican'}]",POINT (-73.86841412633659 40.7493367144709),-73.86841412633659,40.7493367144709,"['97-03 Roosevelt Ave', 'Corona, NY 11368']",Corona,NY,11368.0,2.0,3.5,41,0,0,0,0,hispanic
37,r8rqPlCdc8Debt0LirLZ3g,Mama Lupe,mama-lupe-queens,Dominican,"[{'alias': 'dominican', 'title': 'Dominican'}]",POINT (-73.86303753629051 40.7477584419276),-73.8630375362905,40.7477584419276,"['42-19 102nd St', 'Queens, NY 11368']",Queens,NY,11368.0,1.0,4.5,6,0,0,0,0,hispanic
38,S-xUsS4RKzBrOnAjy6lnyA,Acosta Restaurant,acosta-restaurant-new-york,Dominican,"[{'alias': 'spanish', 'title': 'Spanish'}, {'alias': 'dominican', 'title': 'Dominican'}, {'alias': 'juicebars', 'title': 'Juice Bars & Smoothies'}]",POINT (-73.96599000000001 40.80035),-73.96599,40.80035,"['934 Amsterdam Ave', 'New York, NY 10025']",New York,NY,10025.0,1.0,4.0,32,0,1,1,1,hispanic
39,Kyl9SMMU8tn8og5KQC-p1w,Quetzal Restaurant,quetzal-restaurant-brooklyn,Dominican,"[{'alias': 'spanish', 'title': 'Spanish'}, {'alias': 'dominican', 'title': 'Dominican'}]",POINT (-73.9923672 40.6207928),-73.9923672,40.6207928,"['6420 17th Ave', 'Brooklyn, NY 11204']",Brooklyn,NY,11204.0,1.0,2.5,73,0,1,1,0,hispanic
40,uqnJ8VHEudhb0t84_R9fvw,Rico Pollo,rico-pollo-ridgewood,Dominican,"[{'alias': 'latin', 'title': 'Latin American'}, {'alias': 'dominican', 'title': 'Dominican'}, {'alias': 'breakfast_brunch', 'title': 'Breakfast & Brunch'}]",POINT (-73.9070183886961 40.7000022169917),-73.9070183886961,40.7000022169917,"['5537 Myrtle Ave', 'Ridgewood, NY 11385']",Ridgewood,NY,11385.0,1.0,4.0,97,0,0,0,0,hispanic
41,gW3KOWa75fYsy8j2b0jkmQ,El Sol Del Caribe,el-sol-del-caribe-jersey-city,Dominican,"[{'alias': 'dominican', 'title': 'Dominican'}]",POINT (-74.09214 40.707023),-74.09214,40.707023,"['150 Sterling Ave', 'Jersey City, NJ 07305']",Jersey City,NJ,7305.0,1.0,4.5,37,0,0,0,0,hispanic
42,8g_Wj7bfJNpdtNU3AnkHjw,Rinconcito Dominicano,rinconcito-dominicano-clifton,Dominican,"[{'alias': 'dominican', 'title': 'Dominican'}, {'alias': 'spanish', 'title': 'Spanish'}]",POINT (-74.08518981933591 40.6184616088867),-74.08518981933591,40.618461608886705,"['360 Targee St', 'Clifton, NY 10304']",Clifton,NY,10304.0,,3.0,2,0,0,0,0,hispanic
43,-nPEB-Ad0HzWfHR4VH-TlQ,Mi Casa Restaurant,mi-casa-restaurant-jersey-city,Dominican,"[{'alias': 'dominican', 'title': 'Dominican'}, {'alias': 'spanish', 'title': 'Spanish'}]",POINT (-74.06326999999999 40.71216),-74.06326999999999,40.71216,"['372 Communipaw Ave', 'Jersey City, NJ 07304']",Jersey City,NJ,7304.0,1.0,4.0,13,0,0,0,0,hispanic
44,nyEkCfeFxxn3dOhbZ8VwuA,Coma Bueno,coma-bueno-manhattan,Dominican,"[{'alias': 'latin', 'title': 'Latin American'}, {'alias': 'dominican', 'title': 'Dominican'}]",POINT (-73.96296700000001 40.79964099999999),-73.962967,40.799640999999994,"['944 Columbus Ave', 'Manhattan, NY 10025']",Manhattan,NY,10025.0,2.0,4.5,4,0,0,0,0,hispanic
45,I1AqEw-O6spamgtJLNPjBg,Leche Y Miel Restaurant,leche-y-miel-restaurant-bronx,Dominican,"[{'alias': 'newamerican', 'title': 'American (New)'}, {'alias': 'latin', 'title': 'Latin American'}, {'alias': 'dominican', 'title': 'Dominican'}]",POINT (-73.90183 40.88373),-73.90183,40.88373,"['5761 Broadway', 'Bronx, NY 10463']",Bronx,NY,10463.0,2.0,4.5,234,0,1,0,1,hispanic
46,s7Y0mDQU_1h4vw2cA5y0iA,Ajo Y Oregano,ajo-y-oregano-bronx,Dominican,"[{'alias': 'dominican', 'title': 'Dominican'}]",POINT (-73.86364 40.83953),-73.86364,40.839529999999996,"['1556A White Plains Rd', 'Bronx, NY 10462']",Bronx,NY,10462.0,2.0,4.0,20,0,0,0,0,hispanic
47,WXZwpRoSDom4o49v09qRAg,New San Francisco Restaurant,new-san-francisco-restaurant-new-york,Dominican,"[{'alias': 'dominican', 'title': 'Dominican'}]",POINT (-73.93809 40.84061),-73.93809,40.84061,"['59 Audubon Ave', 'New York, NY 10032']",New York,NY,10032.0,1.0,4.0,22,0,0,0,0,hispanic
48,n6nxNv-jZNEPJq4cEiul2A,Exquisito,exquisito-astoria,Dominican,"[{'alias': 'pizza', 'title': 'Pizza'}, {'alias': 'cuban', 'title': 'Cuban'}, {'alias': 'dominican', 'title': 'Dominican'}]",POINT (-73.936482 40.759429),-73.936482,40.759429,"['21-12 36th Ave', 'Astoria, NY 11106']",Astoria,NY,11106.0,2.0,3.0,24,0,1,1,1,hispanic
49,__2TH8yKnk1GjcgL2MZEIw,Club Valle Restaurant Cafè,club-valle-restaurant-cafè-bronx,Dominican,"[{'alias': 'cafes', 'title': 'Cafes'}, {'alias': 'dominican', 'title': 'Dominican'}, {'alias': 'bars', 'title': 'Bars'}]",POINT (-73.87276 40.87862),-73.87276,40.87862,"['352 E Gun Hill Rd', 'Bronx, NY 10467']",Bronx,NY,10467.0,,4.5,4,0,1,1,0,hispanic
50,ml-cqR3wDUKu1gcZwhiwIw,Mangu Grill,mangu-grill-college-point-2,Dominican,"[{'alias': 'dominican', 'title': 'Dominican'}, {'alias': 'breakfast_brunch', 'title': 'Breakfast & Brunch'}, {'alias': 'sandwiches', 'title': 'Sandwiches'}]",POINT (-73.8457999 40.7839968),-73.8457999,40.7839968,"['15-03 College Point Blvd', 'College Point, NY 11356']",College Point,NY,11356.0,2.0,2.5,36,0,1,1,0,hispanic
51,mevLCY9LcK7IFthpI70N6Q,El Rancho Dominicano,el-rancho-dominicano-brooklyn,Dominican,"[{'alias': 'dominican', 'title': 'Dominican'}, {'alias': 'seafood', 'title': 'Seafood'}, {'alias': 'breakfast_brunch', 'title': 'Breakfast & Brunch'}]",POINT (-73.9568598512909 40.6421281935456),-73.9568598512909,40.6421281935456,"['1157 Flatbush Ave', 'Brooklyn, NY 11226']",Brooklyn,NY,11226.0,2.0,2.5,27,0,1,1,0,hispanic
52,RosZiNt23_DNk-8qXiC4Tg,Punta Cana,punta-cana-park-slope,Dominican,"[{'alias': 'dominican', 'title': 'Dominican'}, {'alias': 'latin', 'title': 'Latin American'}]",POINT (-73.977188 40.681667),-73.977188,40.681667,"['50 5th Ave', 'Park Slope, NY 11217']",Park Slope,NY,11217.0,2.0,3.5,21,0,1,1,0,hispanic
53,cZAwWH1ZmmvqjjlEOvsIxA,Los Amigos Chimmy Churry,los-amigos-chimmy-churry-corona,Dominican,"[{'alias': 'foodtrucks', 'title': 'Food Trucks'}, {'alias': 'dominican', 'title': 'Dominican'}]",POINT (-73.8535914288361 40.752095004541),-73.8535914288361,40.752095004541005,"['Between 111th & 108th On Roosevelt Ave', 'Corona, NY 11368']",Corona,NY,11368.0,1.0,4.0,47,0,0,0,0,hispanic
54,V4lL4GNSfrBYNGuIrrASsA,Guaro Restaurant,guaro-restaurant-corona,Dominican,"[{'alias': 'dominican', 'title': 'Dominican'}, {'alias': 'spanish', 'title': 'Spanish'}]",POINT (-73.86108 40.75417),-73.86108,40.75417,"['107-01 37th Ave', 'Corona, NY 11368']",Corona,NY,11368.0,,4.5,6,0,0,0,0,hispanic
55,S992GWaQVASyYVSBFhfR-A,El Meneo Caribeño Restaurant,el-meneo-caribeño-restaurant-west-new-york,Dominican,"[{'alias': 'dominican', 'title': 'Dominican'}]",POINT (-74.0113909542561 40.7882380214288),-74.0113909542561,40.788238021428796,"['233 61st St', 'West New York, NJ 07093']",West New York,NJ,7093.0,,5.0,2,0,1,1,0,hispanic
56,fcb-GO2hMaFmRUqYVexVeQ,El Sazon De Las Americas,el-sazon-de-las-americas-jersey-city,Dominican,"[{'alias': 'dominican', 'title': 'Dominican'}]",POINT (-74.04361 40.7191),-74.04361,40.7191,"['305 Grove St', 'Jersey City, NJ 07302']",Jersey City,NJ,7302.0,1.0,3.0,54,0,1,1,1,hispanic
57,VboAksPbo_iEtoLHh5LLkQ,Pasteles Cristina,pasteles-cristina-jamaica,Dominican,"[{'alias': 'latin', 'title': 'Latin American'}, {'alias': 'dominican', 'title': 'Dominican'}, {'alias': 'puertorican', 'title': 'Puerto Rican'}]",POINT (-73.81806328652409 40.695112811071),-73.8180632865241,40.695112811071,"['130-09 95th Ave', 'Jamaica, NY 11419']",Jamaica,NY,11419.0,1.0,5.0,11,0,1,1,0,hispanic
58,FsyEN6IBkkE9wZiOCGcO8A,Lechonera El Barrio,lechonera-el-barrio-new-york,Dominican,"[{'alias': 'latin', 'title': 'Latin American'}, {'alias': 'spanish', 'title': 'Spanish'}, {'alias': 'dominican', 'title': 'Dominican'}]",POINT (-73.94659 40.78975),-73.94659,40.78975,"['172 E 103rd St', 'New York, NY 10029']",New York,NY,10029.0,1.0,3.5,64,0,1,1,0,hispanic
59,8t8jDM3z4a5LVnvlfArixA,Blue Cafe Restaurant,blue-cafe-restaurant-brooklyn,Dominican,"[{'alias': 'dominican', 'title': 'Dominican'}, {'alias': 'breakfast_brunch', 'title': 'Breakfast & Brunch'}]",POINT (-73.93872186541559 40.6800499233758),-73.93872186541559,40.6800499233758,"['1563 Fulton St', 'Brooklyn, NY 11216']",Brooklyn,NY,11216.0,,3.5,3,0,0,0,0,hispanic
60,YueraB6Fa8EkI-aYnGZoEw,Bitter Orange Cafe,bitter-orange-cafe-new-york,Dominican,"[{'alias': 'dominican', 'title': 'Dominican'}, {'alias': 'breakfast_brunch', 'title': 'Breakfast & Brunch'}]",POINT (-73.94214676798059 40.80125881547961),-73.94214676798059,40.801258815479606,"['1694 Park Ave', 'New York, NY 10035']",New York,NY,10035.0,2.0,4.0,4,0,1,1,0,hispanic
61,1NJNlU3VXDTBglkKh_EDNQ,Boca Chica Restaurant,boca-chica-restaurant-harrison,Dominican,"[{'alias': 'dominican', 'title': 'Dominican'}]",POINT (-74.15726521133008 40.7462631295443),-74.15726521133008,40.746263129544296,"['317 Harrison Ave', 'Harrison, NJ 07029']",Harrison,NJ,7029.0,,4.5,3,0,0,0,0,hispanic
62,ng3ygKX0aJ2UGSFksN5rFQ,NOMA,noma-woodside,Dominican,"[{'alias': 'dominican', 'title': 'Dominican'}]",POINT (-73.9057776331902 40.74522439228579),-73.9057776331902,40.74522439228579,"['58-28 Roosevelt Ave', 'Woodside, NY 11377']",Woodside,NY,11377.0,2.0,2.5,16,0,0,0,0,hispanic
63,qVp_cMZQUyr0mI-gkxqAOQ,El Rincon De Mi Quisqueya,el-rincon-de-mi-quisqueya-west-new-york,Dominican,"[{'alias': 'dominican', 'title': 'Dominican'}]",POINT (-74.01088320000001 40.789313),-74.01088320000001,40.789313,"['6129 Hudson Ave', 'West New York, NJ 07093']",West New York,NJ,7093.0,1.0,4.5,11,0,0,0,0,hispanic
64,imzfUwOV7HR7pdaJJQMmdw,Mama Catalina Restaurant: Saźon Casero,mama-catalina-restaurant-saźon-casero-corona-2,Dominican,"[{'alias': 'dominican', 'title': 'Dominican'}]",POINT (-73.8550621 40.7517981),-73.8550621,40.7517981,"['111-20 Roosevelt Ave', 'Corona, NY 11368']",Corona,NY,11368.0,2.0,3.5,16,0,1,1,0,hispanic
65,XPZxsUABgJEM5qyT0Bc6Ug,Punta Cana,punta-cana-fort-lee-2,Dominican,"[{'alias': 'dominican', 'title': 'Dominican'}]",POINT (-73.9680551450122 40.8557588882952),-73.9680551450122,40.8557588882952,"['2151 Lemoine Ave', 'Fort Lee, NJ 07024']",Fort Lee,NJ,7024.0,2.0,4.0,75,0,0,0,0,hispanic
66,PJSrhqPpYKXYcBKYfRexDQ,El Mofongo Restaurant,el-mofongo-restaurant-hempstead,Dominican,"[{'alias': 'dominican', 'title': 'Dominican'}]",POINT (-73.608403801918 40.7121570621845),-73.608403801918,40.7121570621845,"['684 Fulton Ave', 'Hempstead, NY 11550']",Hempstead,NY,11550.0,1.0,5.0,156,0,0,0,0,hispanic
67,psvtihQh7fSiJoqfQTE84Q,La Estrella Del Castillo,la-estrella-del-castillo-brooklyn,Dominican,"[{'alias': 'dominican', 'title': 'Dominican'}]",POINT (-73.9511795043945 40.6657257080078),-73.9511795043945,40.6657257080078,"['948 Nostrand Ave', 'Brooklyn, NY 11225']",Brooklyn,NY,11225.0,1.0,3.0,22,0,1,1,0,hispanic
68,3D4DxZAwQvHhfSocMxHsZw,Cachapa Cachapa,cachapa-cachapa-bronx,Dominican,"[{'alias': 'venezuelan', 'title': 'Venezuelan'}, {'alias': 'dominican', 'title': 'Dominican'}]",POINT (-73.8971355557442 40.8470164239407),-73.8971355557442,40.8470164239407,"['1903 Bathgate Ave', 'Bronx, NY 10457']",Bronx,NY,10457.0,1.0,4.0,28,0,1,0,0,hispanic
69,lPeT8Dmu6lzufQCWcgpVow,Juana's Restaurant #1,juanas-restaurant-1-union-city,Dominican,"[{'alias': 'latin', 'title': 'Latin American'}, {'alias': 'dominican', 'title': 'Dominican'}, {'alias': 'breakfast_brunch', 'title': 'Breakfast & Brunch'}]",POINT (-74.03448508326829 40.7715102282484),-74.0344850832683,40.7715102282484,"['2709 Summit Ave', 'Union City, NJ 07087']",Union City,NJ,7087.0,2.0,4.5,14,0,0,0,0,hispanic
70,ucmwboeLLt12_8fg1ulquw,La Casa,la-casa-hoboken,Dominican,"[{'alias': 'cuban', 'title': 'Cuban'}, {'alias': 'dominican', 'title': 'Dominican'}, {'alias': 'puertorican', 'title': 'Puerto Rican'}]",POINT (-74.0301 40.73689),-74.0301,40.73689,"['54 Newark St', 'Hoboken, NJ 07030']",Hoboken,NJ,7030.0,2.0,4.5,64,0,1,1,0,hispanic
71,pEyFR7rZDjOuOY3HkV57-A,Mi Tierra Restaurant,mi-tierra-restaurant-belleville-2,Dominican,"[{'alias': 'latin', 'title': 'Latin American'}, {'alias': 'dominican', 'title': 'Dominican'}]",POINT (-74.16003634460699 40.78763854190979),-74.160036344607,40.78763854190979,"['243 Belleville Ave', 'Belleville, NJ 07109']",Belleville,NJ,7109.0,1.0,4.0,58,0,1,1,0,hispanic
72,1qGPOrTUcU846FAFFSkIyQ,Sazon Ramirez,sazon-ramirez-staten-island,Dominican,"[{'alias': 'dominican', 'title': 'Dominican'}, {'alias': 'newamerican', 'title': 'American (New)'}]",POINT (-74.1662503033876 40.6356154382229),-74.1662503033876,40.6356154382229,"['174 S Ave', 'Staten Island, NY 10303']",Staten Island,NY,10303.0,,2.5,3,0,1,1,0,hispanic
73,HeFJwZRFNDzWH8YfDYtjBg,Las Primas Restaurant,las-primas-restaurant-port-richmond,Dominican,"[{'alias': 'dominican', 'title': 'Dominican'}]",POINT (-74.12215400000001 40.634357),-74.12215400000001,40.634357,"['1195 Castleton Ave', 'Port Richmond, NY 10310']",Port Richmond,NY,10310.0,2.0,3.5,5,0,1,1,0,hispanic
74,jNmQ81wyyjHkBBmZ6oSsew,Tu Casa Restaurant,tu-casa-restaurant-forest-hills,Dominican,"[{'alias': 'peruvian', 'title': 'Peruvian'}, {'alias': 'dominican', 'title': 'Dominican'}, {'alias': 'colombian', 'title': 'Colombian'}]",POINT (-73.84994451603021 40.7246355785539),-73.8499445160302,40.7246355785539,"['103-11 Queens Blvd', 'Forest Hills, NY 11366']",Forest Hills,NY,11366.0,2.0,3.0,89,0,1,1,1,hispanic
75,Lgas7_2mhPIgqvXmt43aPA,Paraiso Cocina Dominicana,paraiso-cocina-dominicana-montclair,Dominican,"[{'alias': 'dominican', 'title': 'Dominican'}]",POINT (-74.21875759999999 40.8222008),-74.21875759999999,40.8222008,"['25 William St', 'Montclair, NJ 07042']",Montclair,NJ,7042.0,1.0,5.0,28,0,0,0,0,hispanic
76,m7ADY4H2wnA3n_QWxheEzQ,Flor de Broadway,flor-de-broadway-new-york,Dominican,"[{'alias': 'sandwiches', 'title': 'Sandwiches'}, {'alias': 'dominican', 'title': 'Dominican'}]",POINT (-73.9541 40.82189),-73.9541,40.82189,"['3395 Broadway', 'New York, NY 10031']",New York,NY,10031.0,1.0,4.0,77,0,1,1,0,hispanic
77,Ps4zNf6rF5yGLdhXlU-dkg,La Cuesta Restaurant,la-cuesta-restaurant-brooklyn,Dominican,"[{'alias': 'dominican', 'title': 'Dominican'}]",POINT (-73.8884354845963 40.6755330432619),-73.8884354845963,40.6755330432619,"['582 Liberty Ave', 'Brooklyn, NY 11207']",Brooklyn,NY,11207.0,2.0,4.5,2,0,0,0,0,hispanic
78,SvuJs-3p4H3FZaoF3K3y3g,El Rey De La Caridad,el-rey-de-la-caridad-new-york,Dominican,"[{'alias': 'latin', 'title': 'Latin American'}, {'alias': 'dominican', 'title': 'Dominican'}, {'alias': 'sandwiches', 'title': 'Sandwiches'}]",POINT (-73.96459 40.80146),-73.96459,40.80146,"['973 Amsterdam Ave', 'New York, NY 10025']",New York,NY,10025.0,2.0,3.5,19,0,1,1,0,hispanic
79,gQcyjeAqqFHjnp0Yl_6uIw,El Conuco Restaurante,el-conuco-restaurante-union-city,Dominican,"[{'alias': 'dominican', 'title': 'Dominican'}, {'alias': 'latin', 'title': 'Latin American'}]",POINT (-74.0439224 40.7585335),-74.0439224,40.7585335,"['715 Summit Ave', 'Union City, NJ 07087']",Union City,NJ,7087.0,1.0,3.5,64,0,1,1,0,hispanic
80,nhJ7guqcGUjqquZ8Py0jhg,Punta Cana Dominican Grill,punta-cana-dominican-grill-westbury,Dominican,"[{'alias': 'dominican', 'title': 'Dominican'}, {'alias': 'latin', 'title': 'Latin American'}, {'alias': 'empanadas', 'title': 'Empanadas'}]",POINT (-73.58750000000001 40.75472),-73.5875,40.75472,"['162 Post Ave', 'Westbury, NY 11590']",Westbury,NY,11590.0,1.0,4.5,221,0,1,1,0,hispanic
81,kyw4X4dxpVcnmHMTg2muZw,Bombonada,bombonada-new-york,Dominican,"[{'alias': 'dominican', 'title': 'Dominican'}, {'alias': 'cafes', 'title': 'Cafes'}, {'alias': 'burgers', 'title': 'Burgers'}]",POINT (-73.93412925302979 40.8488718420267),-73.9341292530298,40.8488718420267,"['1405 St Nicholas Ave', 'New York, NY 10040']",New York,NY,10040.0,1.0,3.5,18,0,1,1,0,hispanic
82,Xby1LYSrJ4RSjZHKGtZimQ,Los Balbuena,los-balbuena-bronx,Dominican,"[{'alias': 'dominican', 'title': 'Dominican'}]",POINT (-73.89787800000001 40.859146),-73.897878,40.859146,"['2376 Ryer Ave', 'Bronx, NY 10458']",Bronx,NY,10458.0,,4.5,3,0,0,0,0,hispanic
83,VkBTdKFqK40os6MlKGnNvA,Libertad Restaurant,libertad-restaurant-ozone-park,Dominican,"[{'alias': 'dominican', 'title': 'Dominican'}]",POINT (-73.84246 40.68091),-73.84246,40.68091,"['9619 Liberty Ave', 'Ozone Park, NY 11417']",Ozone Park,NY,11417.0,2.0,3.5,33,0,1,1,1,hispanic
84,_rpByfACOMMH1L8YUw_a3A,Taino Restaurant,taino-restaurant-new-york,Dominican,"[{'alias': 'dominican', 'title': 'Dominican'}]",POINT (-73.93604999999999 40.84159),-73.93605,40.841590000000004,"['2228 Amsterdam Ave', 'New York, NY 10032']",New York,NY,10032.0,1.0,4.5,2,0,0,0,0,hispanic
85,lAsxDyhqz_-rncQYwE9JAg,La Casa Del Mofongo,la-casa-del-mofongo-new-york-2,Dominican,"[{'alias': 'latin', 'title': 'Latin American'}, {'alias': 'dominican', 'title': 'Dominican'}]",POINT (-73.933403 40.850456),-73.933403,40.850456,"['1447 St Nicholas Ave', 'New York, NY 10033']",New York,NY,10033.0,2.0,3.0,346,0,0,0,0,hispanic
86,nLKl-ury6mN-6w_P2EoWOw,Caridad Restaurant,caridad-restaurant-bronx-3,Dominican,"[{'alias': 'spanish', 'title': 'Spanish'}, {'alias': 'latin', 'title': 'Latin American'}, {'alias': 'dominican', 'title': 'Dominican'}]",POINT (-73.9004 40.85604),-73.9004,40.85604,"['2230 Grand Concourse', 'Bronx, NY 10457']",Bronx,NY,10457.0,2.0,3.0,11,0,1,1,0,hispanic
87,yy0E-rhiKzN2ASfDhHVsJg,El Castillo De Jagua 2,el-castillo-de-jagua-2-new-york-2,Dominican,"[{'alias': 'spanish', 'title': 'Spanish'}, {'alias': 'dominican', 'title': 'Dominican'}, {'alias': 'tradamerican', 'title': 'American (Traditional)'}]",POINT (-73.98184999999999 40.7143299),-73.98185,40.7143299,"['521 Grand St', 'New York, NY 10002']",New York,NY,10002.0,1.0,3.0,68,0,0,0,0,hispanic
88,as8z87xsxCwvRl-BN4QRTQ,La Negra Restaurant,la-negra-restaurant-richmond-hill,Dominican,"[{'alias': 'dominican', 'title': 'Dominican'}, {'alias': 'buffets', 'title': 'Buffets'}, {'alias': 'spanish', 'title': 'Spanish'}]",POINT (-73.845188761814 40.6952714978705),-73.845188761814,40.6952714978705,"['102-03 Jamaica Ave', 'Richmond Hill, NY 11418']",Richmond Hill,NY,11418.0,2.0,3.5,7,0,0,0,0,hispanic
89,DAVRV_GBsYXJXLCT2GZYVw,El Gran Valle IV Restaurant,el-gran-valle-iv-restaurant-new-york,Dominican,"[{'alias': 'sportsbars', 'title': 'Sports Bars'}, {'alias': 'dominican', 'title': 'Dominican'}, {'alias': 'tradamerican', 'title': 'American (Traditional)'}]",POINT (-73.9422886944436 40.83253598195571),-73.9422886944436,40.83253598195571,"['1944 Amsterdam Ave', 'New York, NY 10032']",New York,NY,10032.0,2.0,4.5,4,0,1,1,0,hispanic
90,WVEEkiL7rBV-4BYoQzJhqA,Punto Cibaeno,punto-cibaeno-jamaica-2,Dominican,"[{'alias': 'dominican', 'title': 'Dominican'}, {'alias': 'latin', 'title': 'Latin American'}]",POINT (-73.79701920000001 40.7076097),-73.79701920000001,40.7076097,"['164-05 89th Ave', 'Jamaica, NY 11432']",Jamaica,NY,11432.0,1.0,3.0,11,0,1,1,0,hispanic
91,5QTvF4tHAwViCRScDlSrEw,El Malecon,el-malecon-fort-lee,Dominican,"[{'alias': 'dominican', 'title': 'Dominican'}]",POINT (-73.97846 40.84542),-73.97846,40.845420000000004,"['1400 Anderson Ave', 'Bldg 2', 'Fort Lee, NJ 07024']",Fort Lee,NJ,7024.0,2.0,4.0,21,0,0,0,0,hispanic
92,X7CfkCouGq1ES6TApZLkpA,El Rinconcito Del Sabor Dominicano,el-rinconcito-del-sabor-dominicano-jerome-park,Dominican,"[{'alias': 'spanish', 'title': 'Spanish'}, {'alias': 'dominican', 'title': 'Dominican'}]",POINT (-73.884231 40.873985),-73.884231,40.873985,"['254 E 204th St', 'Jerome Park, NY 10458']",Jerome Park,NY,10458.0,,2.5,8,0,0,0,0,hispanic
93,jmgeN5Bt4TGlfyWe1Fz4ew,Sabor Restaurant & Bakery,sabor-restaurant-and-bakery-new-york,Dominican,"[{'alias': 'bakeries', 'title': 'Bakeries'}, {'alias': 'colombian', 'title': 'Colombian'}, {'alias': 'dominican', 'title': 'Dominican'}]",POINT (-73.84585420000001 40.7836162),-73.8458542,40.783616200000004,"['15-20 College Point Blvd', 'New York, NY 11356']",New York,NY,11356.0,1.0,3.5,11,0,1,1,0,hispanic
94,BuDi2n6JH2jIlGIqQG-XPQ,Quisqueya Restaurant,quisqueya-restaurant-jersey-city-2,Dominican,"[{'alias': 'dominican', 'title': 'Dominican'}]",POINT (-74.05469000000001 40.71949),-74.05469000000001,40.71949,"['214 Bright St', 'Jersey City, NJ 07302']",Jersey City,NJ,7302.0,,3.0,2,0,1,1,1,hispanic
95,0L5EB4bQE7Xa3t2u_CC9IQ,Casa Latina Restaurante,casa-latina-restaurante-jersey-city,Dominican,"[{'alias': 'latin', 'title': 'Latin American'}, {'alias': 'dominican', 'title': 'Dominican'}]",POINT (-74.09444999999999 40.69231),-74.09445,40.69231,"['112 Ocean Ave', 'Jersey City, NJ 07305']",Jersey City,NJ,7305.0,1.0,4.5,14,0,0,0,0,hispanic
96,MROpLAqjjrm4Nr7V1lNuIQ,Caribe Restaurant,caribe-restaurant-east-bronx,Dominican,"[{'alias': 'spanish', 'title': 'Spanish'}, {'alias': 'dominican', 'title': 'Dominican'}]",POINT (-73.8496249169111 40.8245693692756),-73.8496249169111,40.8245693692756,"['849 Castle Hill Ave', 'East Bronx, NY 10473']",East Bronx,NY,10473.0,2.0,3.0,15,0,1,1,0,hispanic
97,NBf8h4rBlbN3lkPaqevBEg,El Buen Gusto,el-buen-gusto-brooklyn,Dominican,"[{'alias': 'latin', 'title': 'Latin American'}, {'alias': 'dominican', 'title': 'Dominican'}]",POINT (-74.01365 40.64516),-74.01365,40.64516,"['5201 4th Ave', 'Brooklyn, NY 11220']",Brooklyn,NY,11220.0,2.0,3.0,16,0,0,0,0,hispanic
98,qI7Q57NeLFuwSCNZrFqFig,D'Polanco Restaurant,d-polanco-restaurant-corona,Dominican,"[{'alias': 'dominican', 'title': 'Dominican'}]",POINT (-73.860722 40.757351),-73.860722,40.757351,"['3313 108th St', 'Corona, NY 11368']",Corona,NY,11368.0,2.0,3.5,13,0,1,1,0,hispanic
99,yrrAP53OfpOTcWmkzJhBBw,La Cabana,la-cabana-ridgewood,Dominican,"[{'alias': 'seafood', 'title': 'Seafood'}, {'alias': 'spanish', 'title': 'Spanish'}, {'alias': 'dominican', 'title': 'Dominican'}]",POINT (-73.89858562230449 40.7093547772897),-73.8985856223045,40.709354777289704,"['6513 Fresh Pond Rd', 'Ridgewood, NY 11385']",Ridgewood,NY,11385.0,1.0,3.5,14,0,0,0,0,hispanic
100,gd01d3cpxVKsGkSaJLfapw,El Tipico Restaurant,el-tipico-restaurant-jersey-city,Dominican,"[{'alias': 'dominican', 'title': 'Dominican'}, {'alias': 'latin', 'title': 'Latin American'}]",POINT (-74.06407892704009 40.7126665860415),-74.06407892704009,40.7126665860415,"['390 Communipaw Ave', 'Jersey City, NJ 07304']",Jersey City,NJ,7304.0,1.0,4.5,2,0,0,0,0,hispanic
101,Bk3u2xTA9vsDplG8rjwFJA,GNR's La Concha,gnrs-la-concha-jersey-city,Dominican,"[{'alias': 'latin', 'title': 'Latin American'}, {'alias': 'spanish', 'title': 'Spanish'}, {'alias': 'dominican', 'title': 'Dominican'}]",POINT (-74.04741825500609 40.7486182223111),-74.0474182550061,40.7486182223111,"['384 Central Ave', 'Jersey City, NJ 07307']",Jersey City,NJ,7307.0,1.0,4.5,56,0,0,0,0,hispanic
102,4ku3NZsRunypKkkEOWEr2w,Edward Lunch & Restaurant,edward-lunch-and-restaurant-brooklyn,Dominican,"[{'alias': 'latin', 'title': 'Latin American'}, {'alias': 'dominican', 'title': 'Dominican'}]",POINT (-74.00737380526259 40.6744356001004),-74.00737380526259,40.674435600100395,"['56 Lorraine St', 'Brooklyn, NY 11231']",Brooklyn,NY,11231.0,1.0,4.0,5,0,0,0,0,hispanic
103,G5TrLAJ-7D_TawVC29QnPg,Cloisters Deli and Grill,cloisters-deli-and-grill-new-york,Dominican,"[{'alias': 'tradamerican', 'title': 'American (Traditional)'}, {'alias': 'dominican', 'title': 'Dominican'}]",POINT (-73.9302521198988 40.86654692888261),-73.9302521198988,40.866546928882606,"['7 Henshaw St', 'New York, NY 10034']",New York,NY,10034.0,1.0,4.5,16,0,1,1,0,hispanic
104,jsf8rJ5eJ3yfq3LBs9wPHg,Chris One Flavor,chris-one-flavor-south-richmond-hill,Dominican,"[{'alias': 'spanish', 'title': 'Spanish'}, {'alias': 'dominican', 'title': 'Dominican'}, {'alias': 'seafood', 'title': 'Seafood'}]",POINT (-73.82725000000001 40.686),-73.82725,40.686,"['115-15 Liberty Ave', 'South Richmond Hill, NY 11419']",South Richmond Hill,NY,11419.0,1.0,3.5,9,0,0,0,0,hispanic
105,7iwrj7nnOzbzuRRNOfNSLg,La Rubia,la-rubia-queens,Dominican,"[{'alias': 'dominican', 'title': 'Dominican'}]",POINT (-73.907524 40.697788),-73.907524,40.697788,"['861 Wyckoff Ave', 'Queens, NY 11385']",Queens,NY,11385.0,2.0,3.5,9,0,0,0,0,hispanic
106,igwUZcLzRb3ptE497O735w,Como En Casa Restaurant,como-en-casa-restaurant-kearny,Dominican,"[{'alias': 'dominican', 'title': 'Dominican'}, {'alias': 'seafood', 'title': 'Seafood'}, {'alias': 'steak', 'title': 'Steakhouses'}]",POINT (-74.1419749706984 40.7691698264276),-74.1419749706984,40.7691698264276,"['161 Midland Ave', 'Kearny, NJ 07032']",Kearny,NJ,7032.0,2.0,5.0,5,0,0,0,0,hispanic
107,bVaMYSK0kLSX4BPcQbB_dw,Sabor Toribio Restaurant,sabor-toribio-restaurant-bushwick,Dominican,"[{'alias': 'dominican', 'title': 'Dominican'}]",POINT (-73.91268029809 40.693219313785),-73.91268029809,40.693219313785,"['446 Wilson Ave', 'Bushwick, NY 11221']",Bushwick,NY,11221.0,1.0,3.5,8,0,1,1,0,hispanic
108,_kxXp3kBxNxKRbsSB9qB1g,Sabor Dominicano,sabor-dominicano-union-city,Dominican,"[{'alias': 'latin', 'title': 'Latin American'}, {'alias': 'breakfast_brunch', 'title': 'Breakfast & Brunch'}, {'alias': 'dominican', 'title': 'Dominican'}]",POINT (-74.02114109999999 40.7822723),-74.0211411,40.7822723,"['4900 Bergenline Ave', 'Union City, NJ 07087']",Union City,NJ,7087.0,1.0,2.5,14,0,1,1,0,hispanic
109,MkUNCEZ8EKPtTEtfXbkxjw,Ventura Restaurant,ventura-restaurant-union-city,Dominican,"[{'alias': 'dominican', 'title': 'Dominican'}]",POINT (-74.04230140000001 40.7608177),-74.04230140000001,40.760817700000004,"['1105 Summit Ave', 'Union City, NJ 07087']",Union City,NJ,7087.0,,5.0,3,0,0,0,0,hispanic
110,HeFJoR1jzodbpYHC842mtQ,Judy's Spanish Restaurant,judys-spanish-restaurant-new-york,Dominican,"[{'alias': 'dominican', 'title': 'Dominican'}]",POINT (-73.95003100000001 40.78704),-73.95003100000001,40.787040000000005,"['1505 Lexington Ave', 'New York, NY 10029']",New York,NY,10029.0,2.0,3.0,163,0,1,1,0,hispanic
111,AflnoQBr01QmQIq5hVH-iA,La Essencia Restaurant,la-essencia-restaurant-new-york,Dominican,"[{'alias': 'mexican', 'title': 'Mexican'}, {'alias': 'dominican', 'title': 'Dominican'}]",POINT (-73.91504999999999 40.87087),-73.91505,40.870870000000004,"['5085 Broadway Ave', 'New York, NY 10034']",New York,NY,10034.0,2.0,4.0,12,0,1,1,0,hispanic
112,BEfIfh7tLLHTEzyabtvNfg,Rico Chimi,rico-chimi-jamaica,Dominican,"[{'alias': 'dominican', 'title': 'Dominican'}, {'alias': 'hotdogs', 'title': 'Fast Food'}]",POINT (-73.86038381498921 40.6850885650715),-73.8603838149892,40.6850885650715,"['80-01 Atlantic Ave', 'Jamaica, NY 11421']",Jamaica,NY,11421.0,1.0,3.0,46,0,0,0,0,hispanic
113,oYmZ9vZFzMQ2b0rz-Lgrtw,La Chozita Restaurant,la-chozita-restaurant-north-bergen,Dominican,"[{'alias': 'mexican', 'title': 'Mexican'}, {'alias': 'dominican', 'title': 'Dominican'}, {'alias': 'breakfast_brunch', 'title': 'Breakfast & Brunch'}]",POINT (-74.0090395 40.8068552),-74.0090395,40.8068552,"['8406 Kennedy Blvd', 'North Bergen, NJ 07047']",North Bergen,NJ,7047.0,1.0,4.0,7,0,0,0,0,hispanic
114,gNDFbKA7TCVwq47TaBzSjQ,Ray's Restaurant and Grill,rays-restaurant-and-grill-hasbrouck-heights,Dominican,"[{'alias': 'dominican', 'title': 'Dominican'}]",POINT (-74.07025169581171 40.8693976750497),-74.0702516958117,40.869397675049704,"['438 Blvd', 'Hasbrouck Heights, NJ 07604']",Hasbrouck Heights,NJ,7604.0,2.0,4.5,20,0,0,0,0,hispanic
115,eoiJzNJRcHYxUv7nNVUcgA,La Gloria,la-gloria-jackson-heights,Dominican,"[{'alias': 'lounges', 'title': 'Lounges'}, {'alias': 'dominican', 'title': 'Dominican'}, {'alias': 'vegan', 'title': 'Vegan'}]",POINT (-73.881107 40.756273),-73.881107,40.756273,"['86-13 Northern Blvd', 'Jackson Heights, NY 11372']",Jackson Heights,NY,11372.0,2.0,3.5,222,0,1,1,1,hispanic
116,TMVTBl9tCnR-y0FJvuszXw,John's Fried Chicken,johns-fried-chicken-cliffside-park,Dominican,"[{'alias': 'latin', 'title': 'Latin American'}, {'alias': 'chickenshop', 'title': 'Chicken Shop'}, {'alias': 'dominican', 'title': 'Dominican'}]",POINT (-73.9877139208547 40.82587463670561),-73.9877139208547,40.825874636705606,"['613 Anderson Ave', 'Cliffside Park, NJ 07010']",Cliffside Park,NJ,7010.0,1.0,3.5,29,0,0,0,0,hispanic
117,rZh-JHEqaK6EesZexrpQFQ,Rice & Beans Restaurant,rice-and-beans-restaurant-queens-village,Dominican,"[{'alias': 'spanish', 'title': 'Spanish'}, {'alias': 'dominican', 'title': 'Dominican'}, {'alias': 'latin', 'title': 'Latin American'}]",POINT (-73.74000100000001 40.72566),-73.740001,40.72566,"['9109 Springfield Blvd', 'Queens Village, NY 11413']",Queens Village,NY,11413.0,1.0,4.5,88,0,0,0,0,hispanic
118,0XDlyOlcwMCSxNSM1m2BVw,Que Sabrosura! Restaurant & Bar,que-sabrosura-restaurant-and-bar-bronx-4,Dominican,"[{'alias': 'latin', 'title': 'Latin American'}, {'alias': 'dominican', 'title': 'Dominican'}, {'alias': 'hookah_bars', 'title': 'Hookah Bars'}]",POINT (-73.9027 40.85827),-73.9027,40.858270000000005,"['48 E 183rd St', 'Bronx, NY 10453']",Bronx,NY,10453.0,2.0,3.0,13,0,1,1,1,hispanic
119,qGeWT7g69jHMSUW2PlGRlg,Floridita,floridita-brooklyn,Dominican,"[{'alias': 'latin', 'title': 'Latin American'}, {'alias': 'dominican', 'title': 'Dominican'}, {'alias': 'cuban', 'title': 'Cuban'}]",POINT (-74.0077217 40.6474361),-74.0077217,40.6474361,"['4523 5th Ave', 'Brooklyn, NY 11220']",Brooklyn,NY,11220.0,2.0,2.0,23,0,1,1,0,hispanic
120,XA8pJAHjGA5LiUd6LoWceA,Charo Restaurant  #3,charo-restaurant-3-corona-3,Dominican,"[{'alias': 'dominican', 'title': 'Dominican'}, {'alias': 'latin', 'title': 'Latin American'}]",POINT (-73.865399 40.753236),-73.865399,40.753236,"['102-01 37th Ave', 'Corona, NY 11368']",Corona,NY,11368.0,1.0,3.5,6,0,0,0,0,hispanic
121,RMbj2p1uwuL51CRZrEeYYA,Juana & Gloria,juana-and-gloria-union-city,Dominican,"[{'alias': 'dominican', 'title': 'Dominican'}, {'alias': 'latin', 'title': 'Latin American'}, {'alias': 'breakfast_brunch', 'title': 'Breakfast & Brunch'}]",POINT (-74.03529 40.7637799),-74.03529,40.7637799,"['1801 Bergenline Ave', 'Union City, NJ 07087']",Union City,NJ,7087.0,2.0,3.5,38,0,0,0,0,hispanic
122,WiY19VZzvsmRwy9v8Y8L_g,El Tipico Dominicano,el-tipico-dominicano-elizabeth,Dominican,"[{'alias': 'hotdogs', 'title': 'Fast Food'}, {'alias': 'dominican', 'title': 'Dominican'}, {'alias': 'seafood', 'title': 'Seafood'}]",POINT (-74.18605041503909 40.6545639038086),-74.18605041503909,40.6545639038086,"['227 3rd St', 'Elizabeth, NJ 07206']",Elizabeth,NJ,7206.0,,4.5,10,0,0,0,0,hispanic
123,0YL4-YMAnINMMUDrzrEoEA,Plato & Rumba,plato-and-rumba-bronx,Dominican,"[{'alias': 'dominican', 'title': 'Dominican'}, {'alias': 'spanish', 'title': 'Spanish'}]",POINT (-73.88933 40.8725),-73.88933,40.8725,"['2958 Jerome Ave', 'Bronx, NY 10468']",Bronx,NY,10468.0,2.0,3.0,6,0,1,1,0,hispanic
124,l8tgcVm3kbHaBm8M8LKkqQ,El Fuerte Fritura Y Chimichurri Truck,el-fuerte-fritura-y-chimichurri-truck-new-york,Dominican,"[{'alias': 'dominican', 'title': 'Dominican'}, {'alias': 'foodtrucks', 'title': 'Food Trucks'}]",POINT (-73.9187053199425 40.8649316787473),-73.9187053199425,40.8649316787473,"['3880 10th Ave', 'New York, NY 10034']",New York,NY,10034.0,2.0,4.0,1,0,0,0,0,hispanic
125,2dGbY17FaHsVBNim9JiTdw,El Presidente,el-presidente-new-york,Dominican,"[{'alias': 'latin', 'title': 'Latin American'}, {'alias': 'dominican', 'title': 'Dominican'}]",POINT (-73.941 40.83891),-73.941,40.83891,"['3938 Broadway', 'New York, NY 10032']",New York,NY,10032.0,1.0,3.0,98,0,1,1,0,hispanic
126,3BJswdqLLIgS4hBMcDt1vA,Buen Ambiente,buen-ambiente-queens,Dominican,"[{'alias': 'dominican', 'title': 'Dominican'}, {'alias': 'bars', 'title': 'Bars'}]",POINT (-73.8137601 40.7023951),-73.8137601,40.7023951,"['138-62 Jamaica Ave', 'Queens, NY 11435']",Queens,NY,11435.0,,3.0,2,0,1,1,0,hispanic
127,oSFOBwbJFsTTn0LNHtin3g,Punta Cana Restaurant,punta-cana-restaurant-elizabeth-2,Dominican,"[{'alias': 'spanish', 'title': 'Spanish'}, {'alias': 'dominican', 'title': 'Dominican'}]",POINT (-74.21454190000001 40.67177299999999),-74.21454190000001,40.671772999999995,"['414 N Broad St', 'Elizabeth, NJ 07208']",Elizabeth,NJ,7208.0,1.0,3.5,18,0,0,0,0,hispanic
128,Xl3_Yl-tWwLY-nfIpQmybA,Legends Bar & Restaurant,legends-bar-and-restaurant-bronx,Dominican,"[{'alias': 'latin', 'title': 'Latin American'}, {'alias': 'bars', 'title': 'Bars'}, {'alias': 'dominican', 'title': 'Dominican'}]",POINT (-73.86963419616221 40.8326002761876),-73.86963419616221,40.8326002761876,"['1735 E 172nd St', 'Bronx, NY 10472']",Bronx,NY,10472.0,,5.0,1,0,1,1,0,hispanic
129,AixhSheRvbZJ8XR_F2UKwg,Mi Casa Bar & Restaurant,mi-casa-bar-and-restaurant-new-york,Dominican,"[{'alias': 'dominican', 'title': 'Dominican'}, {'alias': 'spanish', 'title': 'Spanish'}]",POINT (-73.8326035 40.6991882),-73.8326035,40.6991882,"['116-20 Jamaica Ave', 'New York, NY 11418']",New York,NY,11418.0,2.0,2.5,30,0,1,1,0,hispanic
130,MgWta62hOfAe-DkTA_JaPA,Don Chimi Restaurant,don-chimi-restaurant-brooklyn,Dominican,"[{'alias': 'sandwiches', 'title': 'Sandwiches'}, {'alias': 'hotdogs', 'title': 'Fast Food'}, {'alias': 'dominican', 'title': 'Dominican'}]",POINT (-73.876182 40.682774),-73.876182,40.682774,"['3221 Fulton St', 'Brooklyn, NY 11208']",Brooklyn,NY,11208.0,,3.5,4,0,1,1,0,hispanic
131,3QL775s9XyFzC75htzH6Qg,Cocina Latina Restaurant,cocina-latina-restaurant-new-york-2,Dominican,"[{'alias': 'latin', 'title': 'Latin American'}, {'alias': 'dominican', 'title': 'Dominican'}, {'alias': 'spanish', 'title': 'Spanish'}]",POINT (-73.9190982467405 40.8681143747441),-73.9190982467405,40.8681143747441,"['4986 Broadway', 'New York, NY 10034']",New York,NY,10034.0,2.0,4.0,4,0,1,1,0,hispanic
132,D-XWrZNLNOBeVkFzz0GARg,Picaderas y Bocadillos en New York,picaderas-y-bocadillos-en-new-york-new-york,Dominican,"[{'alias': 'fooddeliveryservices', 'title': 'Food Delivery Services'}, {'alias': 'dominican', 'title': 'Dominican'}, {'alias': 'gourmet', 'title': 'Specialty Food'}]",POINT (-73.84768000000001 40.68647),-73.84768000000001,40.68647,"['9517 94th St', 'New York, NY 11416']",New York,NY,11416.0,,5.0,1,0,0,0,0,hispanic
133,jbCR-6I1HKSzXm7AY2v1WA,Reyna Restaurant,reyna-restaurant-west-bronx,Dominican,"[{'alias': 'dominican', 'title': 'Dominican'}, {'alias': 'mexican', 'title': 'Mexican'}, {'alias': 'latin', 'title': 'Latin American'}]",POINT (-73.911898098886 40.85430290716221),-73.911898098886,40.85430290716221,"['1969 University Ave', 'West Bronx, NY 10468']",West Bronx,NY,10468.0,1.0,4.5,4,0,0,0,0,hispanic
134,3qZbs8qwYv3Abf7uOwrlZA,El Nuevo Pollo Sabroso,el-nuevo-pollo-sabroso-new-york,Dominican,"[{'alias': 'dominican', 'title': 'Dominican'}]",POINT (-73.86680600000001 40.832039),-73.86680600000001,40.832039,"['1779 Westchester Ave', 'New York, NY 10472']",New York,NY,10472.0,1.0,3.0,9,0,1,1,0,hispanic
135,zns45yhKF97VdWmetr0HGw,Caña Brava,caña-brava-west-new-york,Dominican,"[{'alias': 'dominican', 'title': 'Dominican'}, {'alias': 'empanadas', 'title': 'Empanadas'}]",POINT (-74.00870929999999 40.7895489),-74.00870929999999,40.7895489,"['6315 Broadway', 'West New York, NJ 07093']",West New York,NJ,7093.0,1.0,2.5,14,0,1,1,0,hispanic
136,3lZtog5ddFhIRH85iwvC0w,El Primo Restaurant,el-primo-restaurant-hackensack,Dominican,"[{'alias': 'latin', 'title': 'Latin American'}, {'alias': 'dominican', 'title': 'Dominican'}]",POINT (-74.04998000000001 40.88835),-74.04998,40.88835,"['216 Central Ave', 'Hackensack, NJ 07601']",Hackensack,NJ,7601.0,2.0,4.5,7,0,1,1,0,hispanic
137,n2s37F8sbDx4ti7DwWW_mA,Mi Casa Dominican Restaurant,mi-casa-dominican-restaurant-freeport-2,Dominican,"[{'alias': 'dominican', 'title': 'Dominican'}]",POINT (-73.58718618750571 40.6529190391302),-73.58718618750571,40.652919039130204,"['177 W Merrick Rd', 'Freeport, NY 11520']",Freeport,NY,11520.0,2.0,4.0,63,0,1,1,0,hispanic
138,O7oVGyn8lLLlTGAZ2KWvDw,Altagarcia Restaurant,altagarcia-restaurant-bronx,Dominican,"[{'alias': 'dominican', 'title': 'Dominican'}]",POINT (-73.91433050000001 40.844318),-73.9143305,40.844318,"['9 E Mt Eden', 'Bronx, NY 10452']",Bronx,NY,10452.0,1.0,3.5,11,0,1,1,0,hispanic
139,nuTk8o2lLyq3y_7kQEhY6w,Papi's Food & Grille,papis-food-and-grille-brooklyn-2,Dominican,"[{'alias': 'dominican', 'title': 'Dominican'}, {'alias': 'delis', 'title': 'Delis'}, {'alias': 'breakfast_brunch', 'title': 'Breakfast & Brunch'}]",POINT (-73.8752333074808 40.6724193846929),-73.8752333074808,40.6724193846929,"['1161 Sutter Ave', 'Brooklyn, NY 11208']",Brooklyn,NY,11208.0,1.0,4.0,8,0,0,0,0,hispanic
140,l65eJYcNKFZDBcOOGzD_FQ,Pastelitos Elvys,pastelitos-elvys-bushwick,Dominican,"[{'alias': 'dominican', 'title': 'Dominican'}, {'alias': 'empanadas', 'title': 'Empanadas'}, {'alias': 'fooddeliveryservices', 'title': 'Food Delivery Services'}]",POINT (-73.920776 40.69815),-73.920776,40.69815,"['255 Wilson Ave', 'Bushwick, NY 11237']",Bushwick,NY,11237.0,1.0,5.0,4,0,0,0,0,hispanic
141,Um7YmWmIas5Z9upab0kG4w,John's Fried Chicken,johns-fried-chicken-union-city,Dominican,"[{'alias': 'latin', 'title': 'Latin American'}, {'alias': 'chickenshop', 'title': 'Chicken Shop'}, {'alias': 'dominican', 'title': 'Dominican'}]",POINT (-74.02996999999999 40.77256),-74.02996999999999,40.77256,"['521 32nd St', 'Union City, NJ 07087']",Union City,NJ,7087.0,1.0,4.0,40,0,0,0,0,hispanic
142,g5VNncYsBv7LWQcW17FapQ,Caoba Brooklyn Bistro,caoba-brooklyn-bistro-brooklyn,Dominican,"[{'alias': 'bars', 'title': 'Bars'}, {'alias': 'dominican', 'title': 'Dominican'}, {'alias': 'latin', 'title': 'Latin American'}]",POINT (-73.89636999999999 40.67853),-73.89636999999999,40.67853,"['100 Jamaica Ave', 'Brooklyn, NY 11207']",Brooklyn,NY,11207.0,2.0,3.0,31,0,1,1,0,hispanic
143,Z_fTnQgBQTFfErmHApk1hg,La Primicia,la-primicia-jersey-city,Dominican,"[{'alias': 'sandwiches', 'title': 'Sandwiches'}, {'alias': 'dominican', 'title': 'Dominican'}]",POINT (-74.0851530432701 40.7167891412973),-74.0851530432701,40.7167891412973,"['452 W Side Ave', 'Jersey City, NJ 07304']",Jersey City,NJ,7304.0,1.0,3.5,25,0,0,0,0,hispanic
144,r-9F70oGda2KMUe-SvHVqA,Tilila Casa Publica & Cocina,tilila-casa-publica-and-cocina-bronx,Dominican,"[{'alias': 'dominican', 'title': 'Dominican'}, {'alias': 'salad', 'title': 'Salad'}, {'alias': 'sandwiches', 'title': 'Sandwiches'}]",POINT (-73.8984806250956 40.8834278494702),-73.8984806250956,40.8834278494702,"['3648 Bailey Ave', 'Bronx, NY 10463']",Bronx,NY,10463.0,2.0,3.5,50,0,0,0,0,hispanic
145,Uq2rNMzfPkJa-2nxZSvwDg,Albert's Mofongo,alberts-mofongo-new-york-17,Dominican,"[{'alias': 'dominican', 'title': 'Dominican'}, {'alias': 'spanish', 'title': 'Spanish'}, {'alias': 'seafood', 'title': 'Seafood'}]",POINT (-73.9269116141556 40.8653997269059),-73.9269116141556,40.8653997269059,"['4762 Broadway', 'New York, NY 10034']",New York,NY,10034.0,2.0,2.5,141,0,1,1,1,hispanic
146,xfO0gdc8WV5h10NUemubRg,Mi Sueno Cafe,mi-sueno-cafe-saddle-brook,Dominican,"[{'alias': 'dominican', 'title': 'Dominican'}, {'alias': 'spanish', 'title': 'Spanish'}]",POINT (-74.1018776228872 40.8975803256308),-74.1018776228872,40.8975803256308,"['507 Market St', 'Saddle Brook, NJ 07663']",Saddle Brook,NJ,7663.0,1.0,3.5,7,0,0,0,0,hispanic
147,asdbCVYXl1QKNSlzwyNFbw,El Pollo Dorado Fried Chicken & Restaurant,el-pollo-dorado-fried-chicken-and-restaurant-new-york,Dominican,"[{'alias': 'dominican', 'title': 'Dominican'}]",POINT (-73.932182 40.851994),-73.932182,40.851994,"['1497 St Nicholas Ave', 'New York, NY 10033']",New York,NY,10033.0,,4.5,3,0,0,0,0,hispanic
148,gqxjhWIXAi50R4dGisaNjA,King Grill,king-grill-bronx,Dominican,"[{'alias': 'latin', 'title': 'Latin American'}, {'alias': 'spanish', 'title': 'Spanish'}, {'alias': 'dominican', 'title': 'Dominican'}]",POINT (-73.8970032 40.8292885),-73.8970032,40.829288500000004,"['855 E 169th St', 'Bronx, NY 10459']",Bronx,NY,10459.0,2.0,3.5,13,0,0,0,0,hispanic
149,bnxX1RZBExUQQsyia--UnA,Mi Casita,mi-casita-brooklyn,Dominican,"[{'alias': 'dominican', 'title': 'Dominican'}]",POINT (-73.8915052 40.6765717),-73.8915052,40.676571700000004,"['2787 Atlantic Ave', 'Brooklyn, NY 11207']",Brooklyn,NY,11207.0,,3.5,3,0,0,0,0,hispanic
150,682tbIUxjAvPG2fRdOFkeQ,El Valle Seafood Restaurant,el-valle-seafood-restaurant-new-york,Dominican,"[{'alias': 'seafood', 'title': 'Seafood'}, {'alias': 'dominican', 'title': 'Dominican'}]",POINT (-73.919539 40.865661),-73.919539,40.865660999999996,"['231 Sherman Ave', 'New York, NY 10034']",New York,NY,10034.0,1.0,5.0,4,0,1,1,0,hispanic
151,micDEslexkJF7jysBtw1_Q,Mama Elena's Restaurant,mama-elenas-restaurant-passaic,Dominican,"[{'alias': 'latin', 'title': 'Latin American'}, {'alias': 'dominican', 'title': 'Dominican'}, {'alias': 'spanish', 'title': 'Spanish'}]",POINT (-74.1335665 40.8688877),-74.1335665,40.8688877,"['929 Main Ave', 'Passaic, NJ 07055']",Passaic,NJ,7055.0,1.0,4.0,37,0,0,0,0,hispanic
152,gB2tA43tVKZTAI0apVwQcw,Dominican Restaurant,dominican-restaurant-uniondale-2,Dominican,"[{'alias': 'dominican', 'title': 'Dominican'}]",POINT (-73.5926 40.70977),-73.5926,40.70977,"['1019 Front St', 'Uniondale, NY 11553']",Uniondale,NY,11553.0,2.0,3.5,113,0,0,0,0,hispanic
153,zVEK5tD42UP_R0uhVDrlyw,Rancho Latino,rancho-latino-corona,Dominican,"[{'alias': 'dominican', 'title': 'Dominican'}, {'alias': 'latin', 'title': 'Latin American'}]",POINT (-73.86443 40.75297),-73.86443,40.75297,"['3708 103rd St', 'Corona, NY 11368']",Corona,NY,11368.0,1.0,3.5,4,0,0,0,0,hispanic
154,83il7IV7kpLay3oq_fd1RQ,Big Banner Restaurant,big-banner-restaurant-hoboken,Dominican,"[{'alias': 'spanish', 'title': 'Spanish'}, {'alias': 'dominican', 'title': 'Dominican'}, {'alias': 'latin', 'title': 'Latin American'}]",POINT (-74.03954 40.7431),-74.03954,40.7431,"['401 Jackson St', 'Hoboken, NJ 07030']",Hoboken,NJ,7030.0,,2.5,17,0,1,1,0,hispanic
155,rwS5cBbNEh9Otx5IM7GSgw,John's Fried Chicken,johns-fried-chicken-guttenberg,Dominican,"[{'alias': 'dominican', 'title': 'Dominican'}, {'alias': 'latin', 'title': 'Latin American'}, {'alias': 'chickenshop', 'title': 'Chicken Shop'}]",POINT (-74.01237990000001 40.79459),-74.01237990000001,40.79459,"['6719 Bergenline Ave', 'Guttenberg, NJ 07093']",Guttenberg,NJ,7093.0,1.0,3.5,33,0,0,0,0,hispanic
156,pM8pE41aBiR_qwVgTx_Ieg,Don Leo's,don-leos-bronx,Dominican,"[{'alias': 'juicebars', 'title': 'Juice Bars & Smoothies'}, {'alias': 'dominican', 'title': 'Dominican'}, {'alias': 'breakfast_brunch', 'title': 'Breakfast & Brunch'}]",POINT (-73.86258000000001 40.818445),-73.86258000000001,40.818445000000004,"['648 Soundview Ave', 'Bronx, NY 10473']",Bronx,NY,10473.0,1.0,3.0,20,0,1,1,0,hispanic
157,fyLkaBaJRTVyI3ey5guk7g,Mi Cocina,mi-cocina-hackensack,Dominican,"[{'alias': 'dominican', 'title': 'Dominican'}]",POINT (-74.0532300621271 40.8804557747246),-74.0532300621271,40.8804557747246,"['214 Essex St', 'Hackensack, NJ 07601']",Hackensack,NJ,7601.0,2.0,4.0,4,0,1,1,0,hispanic
158,btiXObxpKmVjEsz7Jtq9ow,El Polvorin Restaurant,el-polvorin-restaurant-bronx,Dominican,"[{'alias': 'dominican', 'title': 'Dominican'}]",POINT (-73.8882158696651 40.8168797940016),-73.8882158696651,40.8168797940016,"['807 Hunts Point Ave', 'Bronx, NY 10474']",Bronx,NY,10474.0,1.0,2.0,8,0,1,1,0,hispanic
159,yL_lV46Hl5cirb-SQyy3ew,Mama Mecho,mama-mecho-brooklyn,Dominican,"[{'alias': 'dominican', 'title': 'Dominican'}]",POINT (-73.92668904750859 40.7033484696609),-73.92668904750859,40.703348469660895,"['200 Knickerbocker Ave', 'Brooklyn, NY 11237']",Brooklyn,NY,11237.0,,4.5,2,0,0,0,0,hispanic
160,fo9ITXtOA_OWCg0g2CsRyQ,Ramonitas Restaurant,ramonitas-restaurant-brooklyn,Dominican,"[{'alias': 'dominican', 'title': 'Dominican'}, {'alias': 'puertorican', 'title': 'Puerto Rican'}]",POINT (-73.94108 40.70381),-73.94108,40.70381,"['110 Moore St', 'Brooklyn, NY 11206']",Brooklyn,NY,11206.0,1.0,3.0,6,0,0,0,0,hispanic
161,9iosd1cMwmEGsLwL6EoXsw,Paraiso Bello,paraiso-bello-clifton-2,Dominican,"[{'alias': 'latin', 'title': 'Latin American'}, {'alias': 'dominican', 'title': 'Dominican'}, {'alias': 'puertorican', 'title': 'Puerto Rican'}]",POINT (-74.147071 40.857678),-74.147071,40.857678,"['606 Van Houten Ave', 'Clifton, NJ 07013']",Clifton,NJ,7013.0,1.0,5.0,14,0,1,1,0,hispanic
162,99AQxb2Cl3KLmqPm0VYZ_A,La Parada - Pit Stop,la-parada-pit-stop-bronx,Dominican,"[{'alias': 'dominican', 'title': 'Dominican'}]",POINT (-73.8205642700195 40.8243713378906),-73.8205642700195,40.824371337890604,"['3830 E Tremont Ave', 'Bronx, NY 10465']",Bronx,NY,10465.0,1.0,2.5,17,0,1,1,0,hispanic
163,bF8H0B4X5qwcCfwCwneuzA,La Terraza Restaurant,la-terraza-restaurant-paterson-2,Dominican,"[{'alias': 'dominican', 'title': 'Dominican'}]",POINT (-74.17518000000001 40.91172),-74.17518000000001,40.91172,"['309 Grand St', 'Paterson, NJ 07501']",Paterson,NJ,7501.0,1.0,5.0,12,0,0,0,0,hispanic
164,CSQG3EyCtrts0w9ULQKhTw,Mary's Restaurant,marys-restaurant-valley-stream,Dominican,"[{'alias': 'spanish', 'title': 'Spanish'}, {'alias': 'dominican', 'title': 'Dominican'}, {'alias': 'mexican', 'title': 'Mexican'}]",POINT (-73.72716199999999 40.674363),-73.72716199999999,40.674363,"['867 W Merrick Rd', 'Valley Stream, NY 11580']",Valley Stream,NY,11580.0,1.0,4.0,23,0,0,0,0,hispanic
165,Tr2_CcFo_fjg02dJ9Z0RgQ,El Valle Restaurant Bar,el-valle-restaurant-bar-east-bronx,Dominican,"[{'alias': 'dominican', 'title': 'Dominican'}, {'alias': 'latin', 'title': 'Latin American'}]",POINT (-73.84844 40.87621),-73.84844,40.87621,"['3452 Boston Rd', 'East Bronx, NY 10469']",East Bronx,NY,10469.0,,1.5,18,0,1,1,0,hispanic
166,vLt2PHLh9AtKh7fIIvwCWQ,Le Soleil Restaurant,le-soleil-restaurant-new-york-2,Haitian,"[{u'alias': u'haitian', u'title': u'Haitian'}]",POINT (-73.9885635 40.7691116),-73.9885635,40.7691116,"[858 10th Ave At 57th St, New York, NY 10019]",New York,NY,10019.0,2.0,3.5,74,0,0,0,0,hispanic
167,uhXL4Hq63xakHg1O26ZsdQ,La Caye Restaurant,la-caye-restaurant-brooklyn,Haitian,"[{u'alias': u'haitian', u'title': u'Haitian'}]",POINT (-73.977615 40.687133),-73.977615,40.687133,"[35 Lafayette Ave, Brooklyn, NY 11217]",Brooklyn,NY,11217.0,2.0,3.5,293,0,0,0,1,hispanic
168,aCQXS2tNHA5CdvRdz-jJPQ,Kafe Louverture,kafe-louverture-brooklyn,Haitian,"[{u'alias': u'coffee', u'title': u'Coffee & Tea'}, {u'alias': u'haitian', u'title': u'Haitian'}]",POINT (-73.93843740000001 40.68296160000001),-73.93843740000001,40.682961600000006,"[392 Halsey St, Brooklyn, NY 11216]",Brooklyn,NY,11216.0,1.0,5.0,72,0,1,1,0,hispanic
169,t5-7acjxbd5aNAR5oYi-9w,Harlem Karibe Restaurant & Catering,harlem-karibe-restaurant-and-catering-new-york,Haitian,"[{u'alias': u'haitian', u'title': u'Haitian'}, {u'alias': u'soulfood', u'title': u'Soul Food'}]",POINT (-73.9456163 40.8133004),-73.9456163,40.813300399999996,"[2234 Adam Clayton Powell Jr Blvd, New York, NY 10027]",New York,NY,10027.0,2.0,3.5,58,0,1,1,0,hispanic
170,zyVRaUyISh7-qS3Z-jWsOg,Kombit Bar & Restaurant,kombit-bar-and-restaurant-brooklyn,Haitian,"[{u'alias': u'haitian', u'title': u'Haitian'}]",POINT (-73.97371700000001 40.679428),-73.97371700000001,40.679428,"[279 Flatbush Ave, Brooklyn, NY 11217]",Brooklyn,NY,11217.0,2.0,3.5,111,0,0,0,0,hispanic
171,-ic13XJ9ekpEfshQFPKL4A,Grandchamps Kitchen & Market,grandchamps-kitchen-and-market-bedford-stuyvesant,Haitian,"[{u'alias': u'haitian', u'title': u'Haitian'}, {u'alias': u'sandwiches', u'title': u'Sandwiches'}, {u'alias': u'desserts', u'title': u'Desserts'}]",POINT (-73.92623246630001 40.6846613212),-73.92623246630001,40.6846613212,"[197 Patchen Ave, Bedford-Stuyvesant, NY 11233]",Bedford-Stuyvesant,NY,11233.0,2.0,4.0,155,0,1,0,0,hispanic
172,jGHu1PXJ9lj1Rk_jRCiXkA,Mama Blaze,mama-blaze-brooklyn,Haitian,"[{u'alias': u'haitian', u'title': u'Haitian'}, {u'alias': u'seafood', u'title': u'Seafood'}]",POINT (-73.9467078 40.6513449),-73.9467078,40.6513449,"[907 New York Ave, Brooklyn, NY 11203]",Brooklyn,NY,11203.0,2.0,5.0,5,0,0,0,0,hispanic
173,-C3YksFBbHjIWPADbTqNgw,Pascale Bakery & Restaurant,pascale-bakery-and-restaurant-brooklyn,Haitian,"[{u'alias': u'bakeries', u'title': u'Bakeries'}, {u'alias': u'haitian', u'title': u'Haitian'}]",POINT (-73.9508056641 40.6505126953),-73.9508056641,40.6505126953,"[2816 Church Ave, Brooklyn, NY 11226]",Brooklyn,NY,11226.0,,4.0,11,0,0,0,0,hispanic
174,3o-tTebOwrjT02c1e9a4Kg,Kreyol Flavor,kreyol-flavor-brooklyn-2,Haitian,"[{u'alias': u'haitian', u'title': u'Haitian'}]",POINT (-73.94259 40.62779),-73.94259,40.627790000000005,"[1738 Flatbush Ave, Brooklyn, NY 11210]",Brooklyn,NY,11210.0,2.0,3.5,39,0,0,0,0,hispanic
175,W9JT4cD2EPLx3YpTOsFGvQ,La Tranquilite L'Impressioniste Restaurant,la-tranquilite-l-impressioniste-restaurant-brooklyn,Haitian,"[{u'alias': u'haitian', u'title': u'Haitian'}, {u'alias': u'salad', u'title': u'Salad'}, {u'alias': u'breakfast_brunch', u'title': u'Breakfast & Brunch'}]",POINT (-73.89889000000001 40.63607),-73.89889000000001,40.636070000000004,"[9128 Ave L, Brooklyn, NY 11236]",Brooklyn,NY,11236.0,1.0,3.5,22,0,0,0,0,hispanic
176,MPs5kPWGefnNgZ_cOEwp9A,Yolie's Caribbean Restaurant,yolies-caribbean-restaurant-brooklyn,Haitian,"[{u'alias': u'haitian', u'title': u'Haitian'}]",POINT (-73.92211 40.64463),-73.92211,40.64463,"[5722 Clarendon Rd, Brooklyn, NY 11203]",Brooklyn,NY,11203.0,2.0,3.5,17,0,0,0,0,hispanic
177,w_Am6h5f_dhe205ym5KFkg,Taste of the City Fresh Grill,taste-of-the-city-fresh-grill-brooklyn,Haitian,"[{u'alias': u'haitian', u'title': u'Haitian'}]",POINT (-73.9524 40.6368099),-73.9524,40.636809899999996,"[1368 Flatbush Ave, Brooklyn, NY 11210]",Brooklyn,NY,11210.0,1.0,3.0,13,0,1,0,0,hispanic
178,0-dIlv-BsdzGELGgd0tIqw,Labadee Manoir,labadee-manoir-queens-village,Haitian,"[{u'alias': u'haitian', u'title': u'Haitian'}]",POINT (-73.75273 40.71449),-73.75273,40.714490000000005,"[20713 Jamaica Ave, Queens Village, NY 11428]",Queens Village,NY,11428.0,2.0,3.0,27,0,0,0,0,hispanic
179,fjqVH7KV-sPJwcdKe7Aojg,Bebe Fritay,bebe-fritay-brooklyn,Haitian,"[{u'alias': u'haitian', u'title': u'Haitian'}]",POINT (-73.9524665 40.65049920000001),-73.9524665,40.650499200000006,"[826 Rogers Ave, Brooklyn, NY 11226]",Brooklyn,NY,11226.0,2.0,3.5,13,0,0,0,0,hispanic
180,vSJ3_aiOdn732Cgvj2QCiA,YOYO Fritaille,yoyo-fritaille-brooklyn,Haitian,"[{u'alias': u'haitian', u'title': u'Haitian'}]",POINT (-73.94994 40.63436),-73.94994,40.63436,"[2811 Glenwood Rd, Brooklyn, NY 11210]",Brooklyn,NY,11210.0,2.0,4.0,15,0,0,0,0,hispanic
181,zm_ngfMxyU6d85AaTIgI7Q,Chloe's Restaurant & Lounge,chloes-restaurant-and-lounge-brooklyn,Haitian,"[{u'alias': u'haitian', u'title': u'Haitian'}, {u'alias': u'tradamerican', u'title': u'American (Traditional)'}]",POINT (-73.89731 40.63755),-73.89731,40.63755,"[9413 Ave L, Brooklyn, NY 11236]",Brooklyn,NY,11236.0,2.0,2.5,106,0,1,0,1,hispanic
182,SCmInGHIWS-OCr-Kq4e0wQ,La Baguette Shop,la-baguette-shop-brooklyn-5,Haitian,"[{u'alias': u'bakeries', u'title': u'Bakeries'}, {u'alias': u'haitian', u'title': u'Haitian'}, {u'alias': u'cafes', u'title': u'Cafes'}]",POINT (-73.9523085 40.6506773),-73.9523085,40.6506773,"[2705 Church Ave, Brooklyn, NY 11226]",Brooklyn,NY,11226.0,1.0,4.5,20,0,0,0,0,hispanic
183,k290kJKh0Yl1EIgO3_6adg,Bebe Fritay,bebe-fritay-brooklyn-4,Haitian,"[{u'alias': u'haitian', u'title': u'Haitian'}]",POINT (-73.96321999999999 40.64918),-73.96321999999999,40.64918,"[82B E 18th St, Brooklyn, NY 11226]",Brooklyn,NY,11226.0,,5.0,2,0,0,0,0,hispanic
184,7Cr0uQ9kf0VX_YiSS21QDQ,La Baguette Shop,la-baguette-shop-new-york-2,Haitian,"[{u'alias': u'bakeries', u'title': u'Bakeries'}, {u'alias': u'haitian', u'title': u'Haitian'}, {u'alias': u'cafes', u'title': u'Cafes'}]",POINT (-73.8937725 40.6371227),-73.8937725,40.6371227,"[1836 Rockaway Pkwy, New York, NY 11236]",New York,NY,11236.0,1.0,4.0,17,0,0,0,0,hispanic
185,Z1my6ERZ85PN0JCorC8mdw,Immaculee Bakery,immaculee-bakery-brooklyn,Haitian,"[{u'alias': u'bakeries', u'title': u'Bakeries'}, {u'alias': u'haitian', u'title': u'Haitian'}]",POINT (-73.94953000000001 40.65198),-73.94953000000001,40.65198,"[1411 Nostrand Ave, Brooklyn, NY 11226]",Brooklyn,NY,11226.0,1.0,4.0,21,0,0,0,0,hispanic
186,-rP7jVf3Ji87NaJkJmItnA,Family Altagracia Caribbean Cuisine,family-altagracia-caribbean-cuisine-east-flatbush,Haitian,"[{u'alias': u'haitian', u'title': u'Haitian'}]",POINT (-73.9237221489 40.6449473177),-73.9237221489,40.6449473177,"[5601 Clarendon Rd, East Flatbush, NY 11203]",East Flatbush,NY,11203.0,2.0,5.0,12,0,0,0,0,hispanic
187,v9N-zmoy0K8cCVf3tbQ_nQ,Pikliz Café and Lounge,pikliz-café-and-lounge-crown-heights-2,Haitian,"[{u'alias': u'cafes', u'title': u'Cafes'}, {u'alias': u'lounges', u'title': u'Lounges'}, {u'alias': u'haitian', u'title': u'Haitian'}]",POINT (-73.95887990000001 40.66775),-73.95887990000001,40.66775,"[903 Franklin Ave, Crown Heights, NY 11225]",Crown Heights,NY,11225.0,2.0,3.0,27,0,1,1,0,hispanic
188,__tMfFwKW6yKCvkgmHxBTw,Venus Restaurant,venus-restaurant-brooklyn-4,Haitian,"[{u'alias': u'newamerican', u'title': u'American (New)'}, {u'alias': u'haitian', u'title': u'Haitian'}]",POINT (-73.952776 40.655935),-73.952776,40.655935,"[637 Rogers Ave, Brooklyn, NY 11226]",Brooklyn,NY,11226.0,2.0,3.5,11,0,0,0,0,hispanic
189,B6fshQkb9ITpBw9KAn_a2g,Le Bon Pate,le-bon-pate-queens,Haitian,"[{u'alias': u'haitian', u'title': u'Haitian'}, {u'alias': u'bakeries', u'title': u'Bakeries'}]",POINT (-73.73913140000001 40.7176863),-73.7391314,40.7176863,"[21547 Jamaica Ave, Queens, NY 11428]",Queens,NY,11428.0,,5.0,1,0,0,0,0,hispanic
190,d-zwQhcA0SiceSXVdCumdw,Tonel Restaurant & Lounge,tonel-restaurant-and-lounge-brooklyn,Haitian,"[{u'alias': u'haitian', u'title': u'Haitian'}, {u'alias': u'lounges', u'title': u'Lounges'}]",POINT (-73.95160600000001 40.639714),-73.95160600000001,40.639714,"[1236 Rogers Ave, Brooklyn, NY 11226]",Brooklyn,NY,11226.0,2.0,3.5,13,0,0,0,0,hispanic
191,QQV2ASR1DQjcKup2bLup3g,Chez Macoule,chez-macoule-new-york,Haitian,"[{u'alias': u'haitian', u'title': u'Haitian'}]",POINT (-73.95144000000001 40.64265),-73.95144,40.64265,"[1115 Rogers Ave, New York, NY 10080]",New York,NY,10080.0,1.0,2.0,1,0,0,0,0,hispanic
192,HGZYuZtWbaxVHdOfcUKwBA,Saveur Creole,saveur-creole-montclair,Haitian,"[{u'alias': u'cajun', u'title': u'Cajun/Creole'}, {u'alias': u'haitian', u'title': u'Haitian'}, {u'alias': u'latin', u'title': u'Latin American'}]",POINT (-74.2067642212 40.8159141541),-74.2067642212,40.8159141541,"[131 Grove St, Montclair, NJ 07042]",Montclair,NJ,7042.0,3.0,4.0,189,0,0,0,0,hispanic
193,eEmIRXwM_HLobk6iPzNz2g,Alpha Restaurant,alpha-restaurant-new-york,Haitian,"[{u'alias': u'haitian', u'title': u'Haitian'}, {u'alias': u'newamerican', u'title': u'American (New)'}]",POINT (-73.948601 40.64423),-73.948601,40.64423,"[1709 Nostrand Ave, New York, NY 11226]",New York,NY,11226.0,,4.0,1,0,0,0,0,hispanic
194,EIUPgm5nuBlZUiUl1qtwMQ,La Baguette Shop,la-baguette-shop-brooklyn-4,Haitian,"[{u'alias': u'bakeries', u'title': u'Bakeries'}, {u'alias': u'haitian', u'title': u'Haitian'}, {u'alias': u'cafes', u'title': u'Cafes'}]",POINT (-73.9483932406 40.6404937059),-73.9483932406,40.6404937059,"[1855 Nostrand Ave, Brooklyn, NY 11226]",Brooklyn,NY,11226.0,1.0,5.0,2,0,1,0,0,hispanic
195,zbxuvceFied0knXkDgIYMg,Katou Restaurant,katou-restaurant-flatlands,Haitian,"[{u'alias': u'haitian', u'title': u'Haitian'}]",POINT (-73.9266039804 40.6211501732),-73.9266039804,40.6211501732,"[5012 Avenue M, Flatlands, NY 11234]",Flatlands,NY,11234.0,1.0,4.0,5,0,0,0,0,hispanic
196,9wh4qIz10HlBVY368b4LzA,Bebe Fritay,bebe-fritay-brooklyn-3,Haitian,"[{u'alias': u'haitian', u'title': u'Haitian'}]",POINT (-73.90172 40.64443),-73.90172,40.64443,"[1464 Rockaway Pkwy, Brooklyn,, NY 11236]","Brooklyn,",NY,11236.0,,4.0,1,0,0,0,0,hispanic
197,YbAx8raOft1UjgUgTwhlSQ,Kal's Bakery,kals-bakery-brooklyn,Haitian,"[{u'alias': u'bakeries', u'title': u'Bakeries'}, {u'alias': u'haitian', u'title': u'Haitian'}, {u'alias': u'cafes', u'title': u'Cafes'}]",POINT (-73.945593 40.65126),-73.945593,40.65126,"[3401 Church Ave, Brooklyn, NY 11203]",Brooklyn,NY,11203.0,1.0,3.5,16,0,0,0,0,hispanic
198,RDxJNSKeqYF7N82q07sXbQ,Immaculee Bakery II,immaculee-bakery-ii-brooklyn,Haitian,"[{u'alias': u'bakeries', u'title': u'Bakeries'}, {u'alias': u'haitian', u'title': u'Haitian'}]",POINT (-73.95010000000001 40.65728),-73.9501,40.65728,"[1227 Nostrand Ave, Brooklyn, NY 11225]",Brooklyn,NY,11225.0,1.0,3.5,6,0,0,0,0,hispanic
199,ywJ8-jhNRiRoiBVLW51-9w,Bebe Fritay,bebe-fritay-queens,Haitian,"[{u'alias': u'haitian', u'title': u'Haitian'}]",POINT (-73.74960809999999 40.7034096),-73.74960809999999,40.7034096,"[112-26 Francis Lewis Blvd, Queens, NY 11429]",Queens,NY,11429.0,,2.0,1,0,0,0,0,hispanic
200,qluWeERwTp9WLatxHxX2vw,Labèl Kwizin,labèl-kwizin-linden,Haitian,"[{u'alias': u'haitian', u'title': u'Haitian'}]",POINT (-74.25185999999999 40.6243),-74.25186,40.6243,"[222 S Stiles St, Linden, NJ 07036]",Linden,NJ,7036.0,2.0,3.5,6,0,0,0,0,hispanic
201,f8g5HPhwUs4TpNsf_7uvZw,La Baguette Shop,la-baguette-shop-hollis,Haitian,"[{u'alias': u'bakeries', u'title': u'Bakeries'}, {u'alias': u'haitian', u'title': u'Haitian'}, {u'alias': u'cafes', u'title': u'Cafes'}]",POINT (-73.7684893 40.7128001),-73.7684893,40.712800099999995,"[19109 Jamaica Ave, Hollis, NY 11423]",Hollis,NY,11423.0,1.0,3.5,8,0,0,0,0,hispanic
202,sJy-ObvyXnhXqPTOEIYs9Q,Ambiance Express,ambiance-express-brooklyn,Haitian,"[{u'alias': u'haitian', u'title': u'Haitian'}]",POINT (-73.9476679 40.636058),-73.9476679,40.636058,"[1433 Flatbush Ave, Brooklyn, NY 11210]",Brooklyn,NY,11210.0,2.0,2.0,8,0,1,1,0,hispanic
203,Sr8ZDqs05GxnHk-HscyJFw,First Republic Lounge and Restaurant,first-republic-lounge-and-restaurant-elizabeth,Haitian,"[{u'alias': u'haitian', u'title': u'Haitian'}, {u'alias': u'lounges', u'title': u'Lounges'}]",POINT (-74.21415999999999 40.66627),-74.21415999999999,40.666270000000004,"[1204 E Grand St, Elizabeth, NJ 07201]",Elizabeth,NJ,7201.0,2.0,4.5,47,0,0,0,0,hispanic
204,KOvfcN3tpUmKezmWTG17rw,Jacob's Restaurant,jacobs-restaurant-newark,Haitian,"[{u'alias': u'haitian', u'title': u'Haitian'}]",POINT (-74.24079999999999 40.73621),-74.2408,40.73621,"[80 Mt Vernon Pl, Newark, NJ 07106]",Newark,NJ,7106.0,2.0,4.5,10,0,0,0,0,hispanic
205,cKd0sVCwLuevri6E2P7MJw,La Baguette Shop,la-baguette-shop-brooklyn-2,Haitian,"[{u'alias': u'bakeries', u'title': u'Bakeries'}, {u'alias': u'haitian', u'title': u'Haitian'}, {u'alias': u'cafes', u'title': u'Cafes'}]",POINT (-73.9510614 40.6633278),-73.9510614,40.6633278,"[1028 Nostrand Ave, Brooklyn, NY 11225]",Brooklyn,NY,11225.0,1.0,3.5,13,0,0,0,0,hispanic
206,qYGvJSWrybTrpcL39Iwkeg,Creole Fusion,creole-fusion-jamaica,Haitian,"[{u'alias': u'cajun', u'title': u'Cajun/Creole'}, {u'alias': u'haitian', u'title': u'Haitian'}]",POINT (-73.74005 40.70564),-73.74005,40.70564,"[111 44 Springfield Blvd, Jamaica, NY 11429]",Jamaica,NY,11429.0,1.0,4.0,11,0,1,0,0,hispanic
207,h4y2nmy8VOysU9WMayWtyw,Ultimate Bakery Shop,ultimate-bakery-shop-brooklyn,Haitian,"[{u'alias': u'bakeries', u'title': u'Bakeries'}, {u'alias': u'haitian', u'title': u'Haitian'}]",POINT (-73.95519 40.63984),-73.95519,40.63984,"[1248 Flatbush Ave, Brooklyn, NY 11226]",Brooklyn,NY,11226.0,1.0,3.0,5,0,0,0,0,hispanic
208,R_NSWjC9qV3RxZ1MXVNwfA,Taste the Island,taste-the-island-hempstead,Haitian,"[{u'alias': u'haitian', u'title': u'Haitian'}]",POINT (-73.62758240000001 40.7011855),-73.62758240000001,40.7011855,"[460 Peninsula Blvd, Hempstead, NY 11550]",Hempstead,NY,11550.0,1.0,4.5,11,0,0,0,0,hispanic
209,CdN4PxFxt6OK7TnjG7JTag,Heavenly Fritaille,heavenly-fritaille-queens-village,Haitian,"[{u'alias': u'haitian', u'title': u'Haitian'}]",POINT (-73.74636 40.71607),-73.74636,40.71607,"[212-21 Jamaica Ave, Queens Village, NY 11428]",Queens Village,NY,11428.0,1.0,3.5,10,0,0,0,0,hispanic
210,4VZHAm7KBgg5nwrLU58owA,Elza Restaurant Café & Grill,elza-restaurant-café-and-grill-east-orange-2,Haitian,"[{u'alias': u'haitian', u'title': u'Haitian'}, {u'alias': u'salad', u'title': u'Salad'}, {u'alias': u'cafes', u'title': u'Cafes'}]",POINT (-74.2275863708 40.7562889508),-74.2275863708,40.7562889508,"[158 Sanford St, East Orange, NJ 07018]",East Orange,NJ,7018.0,2.0,3.0,5,0,0,0,0,hispanic
211,n2Dddm0GzlrIkmg56fV-fg,La P'tite Baguette Shop,la-ptite-baguette-shop-cambria-heights,Haitian,"[{u'alias': u'bakeries', u'title': u'Bakeries'}, {u'alias': u'haitian', u'title': u'Haitian'}, {u'alias': u'coffee', u'title': u'Coffee & Tea'}]",POINT (-73.7317424196 40.6923436765),-73.7317424196,40.6923436765,"[229-24 Linden Blvd, Cambria Heights, NY 11411]",Cambria Heights,NY,11411.0,1.0,4.5,13,0,0,0,0,hispanic
212,Ivajrv-scP0KcdH-yi7Exw,Kreyol Flavor,kreyol-flavor-east-flatbush,Haitian,"[{u'alias': u'haitian', u'title': u'Haitian'}]",POINT (-73.9508056641 40.6505126953),-73.9508056641,40.6505126953,"[2816 Church Ave, East Flatbush, NY 11226]",East Flatbush,NY,11226.0,2.0,2.5,7,0,0,0,0,hispanic
213,HVG9S6mfxl2jSUC8Exde4A,Step One Restaurant and Lounge,step-one-restaurant-and-lounge-merrick-blvd,Haitian,"[{u'alias': u'haitian', u'title': u'Haitian'}, {u'alias': u'lounges', u'title': u'Lounges'}]",POINT (-73.73872 40.681692),-73.73872,40.681692,"[229-10C, Merrick Blvd, NY 11413]",Merrick Blvd,NY,11413.0,2.0,3.5,11,0,0,0,0,hispanic
214,CL3PBT_YiRU8fniKL-fGnw,Good Shepherd Restaurant,good-shepherd-restaurant-linden,Haitian,"[{u'alias': u'haitian', u'title': u'Haitian'}]",POINT (-74.24648000000001 40.64781),-74.24648,40.64781,"[1314 E St Georges Ave, Linden, NJ 07036]",Linden,NJ,7036.0,,5.0,1,0,0,0,0,hispanic
215,U-oALa6ssQYexa1muG8s5w,L'Antillaise Caterers and Restaurant,l-antillaise-caterers-and-restaurant-franklin-square,Haitian,"[{u'alias': u'haitian', u'title': u'Haitian'}, {u'alias': u'seafood', u'title': u'Seafood'}]",POINT (-73.6754377828 40.7085404224),-73.6754377828,40.7085404224,"[20 New Hyde Park Rd, Franklin Square, NY 11010]",Franklin Square,NY,11010.0,2.0,3.5,12,0,0,0,0,hispanic
216,SLVreHYKPHcgUe2Szd7p8A,Abou Bakery,abou-bakery-queens,Haitian,"[{u'alias': u'bakeries', u'title': u'Bakeries'}, {u'alias': u'haitian', u'title': u'Haitian'}]",POINT (-73.74965999999999 40.71538),-73.74965999999999,40.715379999999996,"[210-23 Jamaica Ave, Queens, NY 11428]",Queens,NY,11428.0,1.0,4.0,4,0,0,0,0,hispanic
217,p4vrr2ZkFtbCDmqETaXTNA,Creole Plate,creole-plate-rosedale,Haitian,"[{u'alias': u'haitian', u'title': u'Haitian'}]",POINT (-73.7367271958 40.6747175225),-73.7367271958,40.6747175225,"[233-06 Merrick Blvd, Rosedale, NY 11422]",Rosedale,NY,11422.0,2.0,4.0,12,0,0,0,0,hispanic
218,EU9opljDj79ej1ehxksnIg,Le Spot,le-spot-elmont,Haitian,"[{u'alias': u'haitian', u'title': u'Haitian'}]",POINT (-73.7099079 40.7083446),-73.7099079,40.7083446,"[476D Hempstead Turnpike, Elmont, NY 11003]",Elmont,NY,11003.0,,3.5,5,0,0,0,0,hispanic
219,QlxsDYg2yp5qw9czqKt-ow,La Baguette Shop,la-baguette-shop-canarsie,Haitian,"[{u'alias': u'bakeries', u'title': u'Bakeries'}, {u'alias': u'haitian', u'title': u'Haitian'}, {u'alias': u'cafes', u'title': u'Cafes'}]",POINT (-73.91394809999998 40.6352386),-73.91394809999998,40.6352386,"[7915 Flatlands Ave, Canarsie, NY 11236]",Canarsie,NY,11236.0,,4.0,10,0,0,0,0,hispanic
220,kxj7TPtJY2zbEjGV0PYfAA,Le Bon Pain Bakery,le-bon-pain-bakery-queens-village,Haitian,"[{u'alias': u'bakeries', u'title': u'Bakeries'}, {u'alias': u'haitian', u'title': u'Haitian'}]",POINT (-73.74728 40.71587),-73.74728,40.71587,"[211-65 Jamaica Ave, Queens Village, NY 11428]",Queens Village,NY,11428.0,1.0,4.0,78,0,0,0,0,hispanic
221,_nae3og57IBTduC0ddpzaA,Intimite Restaurant,intimite-restaurant-irvington,Haitian,"[{u'alias': u'haitian', u'title': u'Haitian'}]",POINT (-74.23876 40.71582),-74.23876,40.71582,"[730 Chancellor Ave, Irvington, NJ 07111]",Irvington,NJ,7111.0,,4.0,2,0,0,0,0,hispanic
222,ejNfmhdUEUC2Epw4lyIXvQ,Fritaille,fritaille-irvington,Haitian,"[{u'alias': u'haitian', u'title': u'Haitian'}, {u'alias': u'newamerican', u'title': u'American (New)'}]",POINT (-74.23735500000001 40.7247191),-74.23735500000001,40.7247191,"[643 Stuyvesant Ave, Irvington, NJ 07111]",Irvington,NJ,7111.0,1.0,3.0,8,0,0,0,0,hispanic
223,qhbbVFEFTlCZP1z5bQ5E2A,B-B Bakery,b-b-bakery-east-orange,Haitian,"[{u'alias': u'bakeries', u'title': u'Bakeries'}, {u'alias': u'haitian', u'title': u'Haitian'}, {u'alias': u'cafes', u'title': u'Cafes'}]",POINT (-74.22765 40.7466099),-74.22765,40.746609899999996,"[959 S Orange Ave, East Orange, NJ 07018]",East Orange,NJ,7018.0,1.0,4.0,12,0,0,0,0,hispanic
224,oy8RpLTxNtKowlf6NKCtLQ,Kay Manmanm Restaurant,kay-manmanm-restaurant-queens,Haitian,"[{u'alias': u'haitian', u'title': u'Haitian'}]",POINT (-73.74779620000001 40.715704),-73.74779620000001,40.715703999999995,"[211-47 Jamaica Ave, Queens, NY 11428]",Queens,NY,11428.0,,3.0,1,0,0,0,0,hispanic
225,_IGEFtOG-vABiP7VDNIdcg,Mixed Notes Cafe,mixed-notes-cafe-elmont,Haitian,"[{u'alias': u'haitian', u'title': u'Haitian'}, {u'alias': u'bars', u'title': u'Bars'}]",POINT (-73.7135965976 40.6997157963),-73.7135965976,40.6997157963,"[333 Elmont Rd, Elmont, NY 11003]",Elmont,NY,11003.0,2.0,3.0,26,0,1,1,0,hispanic
226,CwJyMcmCiYeULU0Mqt6Wmw,New York Fried Chicken,new-york-fried-chicken-montclair,Haitian,"[{u'alias': u'tradamerican', u'title': u'American (Traditional)'}, {u'alias': u'haitian', u'title': u'Haitian'}]",POINT (-74.2153931 40.8118591),-74.2153931,40.8118591,"[348 Bloomfield Ave, Montclair, NJ 07042]",Montclair,NJ,7042.0,2.0,3.0,6,0,0,0,0,hispanic
227,8VsTsj4bH73c64qCAUjDjQ,Kreyol Taste,kreyol-taste-uniondale,Haitian,"[{u'alias': u'haitian', u'title': u'Haitian'}]",POINT (-73.59288787840001 40.7031364441),-73.5928878784,40.7031364441,"[498 Uniondale Ave, Uniondale, NY 11553]",Uniondale,NY,11553.0,2.0,3.0,8,0,0,0,0,hispanic
228,A0mHyXA2FVL-8kA2xoIwUw,Your Daily Baguette,your-daily-baguette-east-orange,Haitian,"[{u'alias': u'haitian', u'title': u'Haitian'}, {u'alias': u'bakeries', u'title': u'Bakeries'}]",POINT (-74.2200749 40.7584109),-74.2200749,40.7584109,"[466 Central Ave, East Orange, NJ 07018]",East Orange,NJ,7018.0,1.0,4.0,12,0,0,0,1,hispanic
229,1J2KWYg9XVKKeW4_u0FKiQ,Labonte Restaurant,labonte-restaurant-irvington-2,Haitian,"[{u'alias': u'haitian', u'title': u'Haitian'}]",POINT (-74.24147033689999 40.7248649597),-74.2414703369,40.7248649597,"[1266 Springfield Ave, Ste C, Irvington, NJ 07111]",Irvington,NJ,7111.0,,4.5,3,0,0,0,0,hispanic
230,rGAEt1QWe-BXOg514Uzv6g,Le Bassin Bleu Restaurant,le-bassin-bleu-restaurant-hempstead,Haitian,"[{u'alias': u'newamerican', u'title': u'American (New)'}, {u'alias': u'haitian', u'title': u'Haitian'}]",POINT (-73.6062240601 40.7023124695),-73.6062240601,40.7023124695,"[310 Jerusalem Ave, Hempstead, NY 11550]",Hempstead,NY,11550.0,1.0,3.5,7,0,0,0,0,hispanic
231,d7ygFFm9FvKQ_IWCistvpA,Mirelle's Restaurant,mirelles-restaurant-westbury,Haitian,"[{u'alias': u'catering', u'title': u'Caterers'}, {u'alias': u'haitian', u'title': u'Haitian'}]",POINT (-73.58750999999999 40.75510999999999),-73.58751,40.755109999999995,"[170 Post Ave, Westbury, NY 11590]",Westbury,NY,11590.0,2.0,3.5,15,0,0,0,0,hispanic
232,yIiDQGIjP27349eG3NmNrA,United Brothers Bakery,united-brothers-bakery-elizabeth,Haitian,"[{u'alias': u'bakeries', u'title': u'Bakeries'}, {u'alias': u'haitian', u'title': u'Haitian'}]",POINT (-74.21562890000001 40.66947020000001),-74.21562890000001,40.669470200000006,"[261 N Broad St, Elizabeth, NJ 07208]",Elizabeth,NJ,7208.0,1.0,5.0,4,0,0,0,0,hispanic
233,cJlrx2nukwWwttEmFp0Jhw,Marcky's Restaurant,marckys-restaurant-irvington-3,Haitian,"[{u'alias': u'haitian', u'title': u'Haitian'}, {u'alias': u'newamerican', u'title': u'American (New)'}]",POINT (-74.23602 40.7288856765),-74.23602,40.7288856765,"[527 Stuyvesant Ave, Irvington, NJ 07111]",Irvington,NJ,7111.0,,2.5,3,0,0,0,0,hispanic
234,kzfbU8FKWcBJcrPoJ56BRA,Sak-Pasé,sak-pasé-baldwin,Haitian,"[{u'alias': u'cajun', u'title': u'Cajun/Creole'}, {u'alias': u'haitian', u'title': u'Haitian'}]",POINT (-73.6072653666 40.6632161472),-73.6072653666,40.663216147199996,"[1929 Grand Ave, Baldwin, NY 11510]",Baldwin,NY,11510.0,,3.5,2,0,0,0,0,hispanic
235,LG0GK4MmBRb03u7fhEdlrA,YoYo Fritaille,yoyo-fritaille-canarsie,Haitian,"[{u'alias': u'haitian', u'title': u'Haitian'}]",POINT (-73.90019000000001 40.64345),-73.90019000000001,40.64345,"[1519 Rockaway Pkwy, Canarsie, NY 11236]",Canarsie,NY,11236.0,,4.0,1,0,0,0,0,hispanic
236,r5Vo3t_fa_CkpVXhEOFEZQ,Denise's Place,denises-place-irvington-2,Haitian,"[{u'alias': u'haitian', u'title': u'Haitian'}]",POINT (-74.24265030000001 40.7243253),-74.24265030000001,40.7243253,"[1295 Springfield Ave, Irvington, NJ 07111]",Irvington,NJ,7111.0,1.0,3.5,5,0,0,0,0,hispanic
237,WAm9GS6StRTW9w_Mtj3TUg,Port O Prince Star Restaurant,port-o-prince-star-restaurant-jamaica,Haitian,"[{u'alias': u'haitian', u'title': u'Haitian'}]",POINT (-73.73869000000001 40.69494),-73.73869,40.69494,"[22113 Linden Blvd, Jamaica, NY 11411]",Jamaica,NY,11411.0,,2.5,2,0,0,0,0,hispanic
238,dFAbKmYFAb1NFu6MXyT3DA,Flanm Cuisine & Catering,flanm-cuisine-and-catering-hempstead,Haitian,"[{u'alias': u'haitian', u'title': u'Haitian'}]",POINT (-73.74056999999999 40.7174),-73.74056999999999,40.7174,"[215-07 Jamaica Ave, Hempstead, NY 11428]",Hempstead,NY,11428.0,,5.0,1,0,0,0,0,hispanic
239,zcFHYHTi6FtJKI4YNmf4gg,Belvedere Restaurant,belvedere-restaurant-queens-village,Haitian,"[{u'alias': u'haitian', u'title': u'Haitian'}]",POINT (-73.7363 40.7132),-73.7363,40.7132,"[21854 Hempstead Ave, Queens Village, NY 11429]",Queens Village,NY,11429.0,,3.5,3,0,0,0,0,hispanic
240,4umZCIoDFubr3ABkMIRUjg,Prestige Caribbean Restaurant,prestige-caribbean-restaurant-elmont,Haitian,"[{u'alias': u'haitian', u'title': u'Haitian'}]",POINT (-73.72216 40.70901),-73.72216,40.70901,"[127 Hempstead Turnpike, Elmont, NY 11003]",Elmont,NY,11003.0,,1.0,2,0,0,0,0,hispanic
241,RThvexVhZQ8KA6JAr0UkCQ,Casa Adela,casa-adela-new-york,Puerto Rican,"[{u'alias': u'latin', u'title': u'Latin American'}, {u'alias': u'puertorican', u'title': u'Puerto Rican'}]",POINT (-73.97973 40.72264000000001),-73.97973,40.722640000000006,"[66 Ave C, New York, NY 10009]",New York,NY,10009.0,2.0,4.0,339,0,0,0,0,hispanic
242,3hCi3e-Ea62tdSdcdioR1g,El Rinconcito,el-rinconcito-new-york,Puerto Rican,"[{u'alias': u'latin', u'title': u'Latin American'}, {u'alias': u'puertorican', u'title': u'Puerto Rican'}, {u'alias': u'dominican', u'title': u'Dominican'}]",POINT (-73.977 40.72553),-73.977,40.72553,"[408 E 10th St, New York, NY 10009]",New York,NY,10009.0,1.0,4.5,46,0,0,0,0,hispanic
243,BgueHXOeFcOHGT8jwBkEYw,The Freakin Rican Restaurant,the-freakin-rican-restaurant-new-york-2,Puerto Rican,"[{u'alias': u'puertorican', u'title': u'Puerto Rican'}, {u'alias': u'catering', u'title': u'Caterers'}, {u'alias': u'foodstands', u'title': u'Food Stands'}]",POINT (-73.9852600098 40.7397689819),-73.9852600098,40.7397689819,"[New York, NY 10010]",New York,NY,10010.0,,5.0,2,0,0,0,0,hispanic
244,154ILTDY2x4liySxKmO4cw,Zoralie Restaurant,zoralie-restaurant-new-york,Puerto Rican,"[{u'alias': u'dominican', u'title': u'Dominican'}, {u'alias': u'spanish', u'title': u'Spanish'}, {u'alias': u'puertorican', u'title': u'Puerto Rican'}]",POINT (-73.9902253076 40.7649401428),-73.9902253076,40.7649401428,"[449 W 51st St, New York, NY 10019]",New York,NY,10019.0,1.0,4.0,183,0,1,1,0,hispanic
245,HnXmp1M7oNTJ9JzzVOQgBw,ME Casa Restaurant and Catering,me-casa-restaurant-and-catering-jersey-city,Puerto Rican,"[{u'alias': u'latin', u'title': u'Latin American'}, {u'alias': u'puertorican', u'title': u'Puerto Rican'}]",POINT (-74.04813399999999 40.720908),-74.04813399999999,40.720908,"[356 Varick St, Jersey City, NJ 07302]",Jersey City,NJ,7302.0,2.0,4.0,658,0,1,1,0,hispanic
246,LI6r2gaOFSZE93BKx8ULUQ,Pasteles Y Algo Mas,pasteles-y-algo-mas-ridgefield-park,Puerto Rican,"[{u'alias': u'puertorican', u'title': u'Puerto Rican'}, {u'alias': u'latin', u'title': u'Latin American'}]",POINT (-74.0256552985 40.8495410767),-74.0256552985,40.8495410767,"[63 Ridgefield Ave, Ridgefield Park, NJ 07660]",Ridgefield Park,NJ,7660.0,1.0,4.0,145,0,1,0,0,hispanic
247,BnNDRCWasVrFH9e9bBXfqQ,Lechonera La Isla,lechonera-la-isla-new-york,Puerto Rican,"[{u'alias': u'latin', u'title': u'Latin American'}, {u'alias': u'puertorican', u'title': u'Puerto Rican'}]",POINT (-73.93403000000001 40.80278),-73.93403,40.80278,"[256 E 125th St, New York, NY 10035]",New York,NY,10035.0,1.0,4.5,52,0,0,0,0,hispanic
248,pFBNTJpy1eWmfu6aQ8e1YA,Cuchifritos,cuchifritos-new-york-2,Puerto Rican,"[{u'alias': u'latin', u'title': u'Latin American'}, {u'alias': u'puertorican', u'title': u'Puerto Rican'}]",POINT (-73.941 40.79804),-73.941,40.79804,"[168 E 116th St, New York, NY 10029]",New York,NY,10029.0,1.0,4.0,136,0,0,0,0,hispanic
249,9Po0UEew5CNRi6wWEPlkWQ,El Rinconcito Boricua,el-rinconcito-boricua-elizabeth,Puerto Rican,"[{u'alias': u'puertorican', u'title': u'Puerto Rican'}]",POINT (-74.2193099 40.65628),-74.2193099,40.656279999999995,"[335 Washington Ave, Elizabeth, NJ 07202]",Elizabeth,NJ,7202.0,,5.0,3,0,0,0,0,hispanic
250,VboAksPbo_iEtoLHh5LLkQ,Pasteles Cristina,pasteles-cristina-jamaica,Puerto Rican,"[{u'alias': u'latin', u'title': u'Latin American'}, {u'alias': u'dominican', u'title': u'Dominican'}, {u'alias': u'puertorican', u'title': u'Puerto Rican'}]",POINT (-73.81806328649999 40.6951128111),-73.81806328649999,40.6951128111,"[130-09 95th Ave, Jamaica, NY 11419]",Jamaica,NY,11419.0,1.0,5.0,11,0,1,1,0,hispanic
251,PjISf4rkN5UO-lHLmrdZjQ,La Isla,la-isla-brooklyn,Puerto Rican,"[{u'alias': u'latin', u'title': u'Latin American'}, {u'alias': u'puertorican', u'title': u'Puerto Rican'}]",POINT (-73.918251 40.699031),-73.918251,40.699031,"[1439 Myrtle Ave, Brooklyn, NY 11237]",Brooklyn,NY,11237.0,1.0,4.0,75,0,0,0,0,hispanic
252,tqRIp-bwFjp6CX4n_q6uQg,Mofongo,mofongo-brooklyn,Puerto Rican,"[{u'alias': u'puertorican', u'title': u'Puerto Rican'}, {u'alias': u'foodstands', u'title': u'Food Stands'}]",POINT (-73.96910095210001 40.6581802368),-73.9691009521,40.6581802368,"[200 Well House Dr, Brooklyn, NY 11218]",Brooklyn,NY,11218.0,,4.0,3,0,0,0,0,hispanic
253,mcviVVgOj4jSzmyhQeEY5Q,Isla Bonita,isla-bonita-west-new-york,Puerto Rican,"[{u'alias': u'puertorican', u'title': u'Puerto Rican'}, {u'alias': u'cuban', u'title': u'Cuban'}, {u'alias': u'latin', u'title': u'Latin American'}]",POINT (-74.0088099986 40.7863402316),-74.0088099986,40.7863402316,"[6023 Park Ave, West New York, NJ 07093]",West New York,NJ,7093.0,1.0,4.5,49,0,0,0,0,hispanic
254,FJpiwlGUPgAQeTr7D6ZWgw,El Sabroso,el-sabroso-jersey-city,Puerto Rican,"[{u'alias': u'latin', u'title': u'Latin American'}, {u'alias': u'puertorican', u'title': u'Puerto Rican'}, {u'alias': u'spanish', u'title': u'Spanish'}]",POINT (-74.0472 40.74881),-74.0472,40.74881,"[414 Central Ave, Jersey City, NJ 07307]",Jersey City,NJ,7307.0,1.0,4.0,95,0,0,0,0,hispanic
255,Pn_KLz8cue1P0AWQgFw1Zg,Gena's Grill,genas-grill-new-york,Puerto Rican,"[{u'alias': u'dominican', u'title': u'Dominican'}, {u'alias': u'puertorican', u'title': u'Puerto Rican'}]",POINT (-73.982955 40.730327),-73.982955,40.730327,"[210 1st Ave, New York, NY 10009]",New York,NY,10009.0,1.0,4.0,143,0,0,0,0,hispanic
256,GVMgW5_mSwId-ugki0AM2w,Lechonera La Piraña,lechonera-la-piraña-bronx,Puerto Rican,"[{u'alias': u'foodstands', u'title': u'Food Stands'}, {u'alias': u'latin', u'title': u'Latin American'}, {u'alias': u'puertorican', u'title': u'Puerto Rican'}]",POINT (-73.9062440023 40.8156549792),-73.9062440023,40.8156549792,"[152nd St & Wales Ave, Bronx, NY 10455]",Bronx,NY,10455.0,1.0,5.0,13,0,0,0,0,hispanic
257,pXA2UgJEHNNonaGPAXuFzg,La Isla Cuchifritos,la-isla-cuchifritos-brooklyn,Puerto Rican,"[{u'alias': u'spanish', u'title': u'Spanish'}, {u'alias': u'puertorican', u'title': u'Puerto Rican'}, {u'alias': u'latin', u'title': u'Latin American'}]",POINT (-73.94199 40.70099),-73.94199,40.700990000000004,"[6 Graham Ave, Brooklyn, NY 11206]",Brooklyn,NY,11206.0,1.0,4.0,58,0,0,0,0,hispanic
258,4bzxTUYYw0PGexhCyroqsg,Moore Street Market,moore-street-market-brooklyn-2,Puerto Rican,"[{u'alias': u'grocery', u'title': u'Grocery'}, {u'alias': u'puertorican', u'title': u'Puerto Rican'}]",POINT (-73.94108 40.70381),-73.94108,40.70381,"[110 Moore St, Brooklyn, NY 11206]",Brooklyn,NY,11206.0,1.0,4.5,8,0,0,0,0,hispanic
259,zSYBOWCzhz9aHJX0Nt6fhg,La Isla Cuchifrito,la-isla-cuchifrito-bronx,Puerto Rican,"[{u'alias': u'spanish', u'title': u'Spanish'}, {u'alias': u'latin', u'title': u'Latin American'}, {u'alias': u'puertorican', u'title': u'Puerto Rican'}]",POINT (-73.92271 40.81711),-73.92271,40.81711,"[276 E 149th St, Bronx, NY 10451]",Bronx,NY,10451.0,1.0,4.5,20,0,0,0,0,hispanic
260,RSIboJc3I_PAMuJ058GmrA,Sandra's Food Spot Cart,sandras-food-spot-cart-new-york,Puerto Rican,"[{u'alias': u'puertorican', u'title': u'Puerto Rican'}, {u'alias': u'foodstands', u'title': u'Food Stands'}]",POINT (-74.00965690609999 40.70823051510001),-74.00965690609999,40.708230515100006,"[Nassua St, New York, NY 10005]",New York,NY,10005.0,1.0,4.5,26,0,0,0,0,hispanic
261,wRB5UDy1rhal-14brCUc0Q,La Fonda,la-fonda-new-york,Puerto Rican,"[{u'alias': u'latin', u'title': u'Latin American'}, {u'alias': u'spanish', u'title': u'Spanish'}, {u'alias': u'puertorican', u'title': u'Puerto Rican'}]",POINT (-73.94505699999999 40.7918998),-73.94505699999999,40.791899799999996,"[169 E 106th St, New York, NY 10029]",New York,NY,10029.0,2.0,3.5,136,0,0,0,1,hispanic
262,rjhMLr35TC3pU5Obct5v7g,Puerto Rico Restaurant and Pizzeria,puerto-rico-restaurant-and-pizzeria-brooklyn,Puerto Rican,"[{u'alias': u'puertorican', u'title': u'Puerto Rican'}, {u'alias': u'pizza', u'title': u'Pizza'}]",POINT (-74.01441 40.641516),-74.01441,40.641515999999996,"[5616 5th Ave, Brooklyn, NY 11220]",Brooklyn,NY,11220.0,1.0,2.5,9,0,0,0,0,hispanic
263,cw48jFQTYxfEFcVF2yNXTw,El Chevere,el-chevere-new-york,Puerto Rican,"[{u'alias': u'puertorican', u'title': u'Puerto Rican'}, {u'alias': u'spanish', u'title': u'Spanish'}, {u'alias': u'dominican', u'title': u'Dominican'}]",POINT (-73.94306999999999 40.79409),-73.94306999999999,40.794090000000004,"[2000 3rd Ave, New York, NY 10029]",New York,NY,10029.0,1.0,4.0,21,0,0,0,0,hispanic
264,Y8Fj6nhoWrMuPR1rlzfZXw,Mis Raices Restaurant,mis-raices-restaurant-teaneck-2,Puerto Rican,"[{u'alias': u'puertorican', u'title': u'Puerto Rican'}, {u'alias': u'cuban', u'title': u'Cuban'}]",POINT (-74.00138000000001 40.89412),-74.00138000000001,40.89412,"[1213 Teaneck Rd, Teaneck, NJ 07666]",Teaneck,NJ,7666.0,2.0,4.5,114,0,1,1,0,hispanic
265,lEX4Rig2wni2rSIfT9EmjA,LaLa's Puerto Rican Kitchen,lalas-puerto-rican-kitchen-union-city,Puerto Rican,"[{u'alias': u'puertorican', u'title': u'Puerto Rican'}]",POINT (-74.03801999999999 40.7695),-74.03801999999999,40.7695,"[904 23rd St, Ste 301, Union City, NJ 07087]",Union City,NJ,7087.0,,4.5,2,0,0,0,0,hispanic
266,QoHVQScX2-40r0XE7JZBDQ,Pr Flavors,pr-flavors-paterson,Puerto Rican,"[{u'alias': u'puertorican', u'title': u'Puerto Rican'}, {u'alias': u'latin', u'title': u'Latin American'}]",POINT (-74.15155 40.93414),-74.15155,40.93414,"[248 5th Ave, Paterson, NJ 07524]",Paterson,NJ,7524.0,,2.5,7,0,0,0,0,hispanic
267,MPYZeMAZN0W7fUembWzbPA,La Cocina Boricua,la-cocina-boricua-bronx-2,Puerto Rican,"[{u'alias': u'latin', u'title': u'Latin American'}, {u'alias': u'spanish', u'title': u'Spanish'}, {u'alias': u'puertorican', u'title': u'Puerto Rican'}]",POINT (-73.85047 40.83449),-73.85047,40.83449,"[2245 B Westchester Ave, Bronx, NY 10462]",Bronx,NY,10462.0,2.0,3.5,128,0,0,0,0,hispanic
268,1w3fk2hk4-yMAdfiG6htXw,BQN Borinquen Grill,bqn-borinquen-grill-newark,Puerto Rican,"[{u'alias': u'puertorican', u'title': u'Puerto Rican'}, {u'alias': u'salad', u'title': u'Salad'}, {u'alias': u'sandwiches', u'title': u'Sandwiches'}]",POINT (-74.18003 40.74874000000001),-74.18003,40.748740000000005,"[267 Orange St, Newark, NJ 07103]",Newark,NJ,7103.0,2.0,5.0,23,0,0,0,0,hispanic
269,XR1jM0e7G3HYOMgi4CXlnw,188 Bakery Cuchifrito's,188-bakery-cuchifritos-bronx,Puerto Rican,"[{u'alias': u'bakeries', u'title': u'Bakeries'}, {u'alias': u'latin', u'title': u'Latin American'}, {u'alias': u'puertorican', u'title': u'Puerto Rican'}]",POINT (-73.89832079999999 40.8614682),-73.8983208,40.861468200000004,"[158 E 188th St, Bronx, NY 10468]",Bronx,NY,10468.0,1.0,4.0,64,0,0,0,0,hispanic
270,8dlS098gFHDyH8kj9qRTuQ,El Nuevo Bohio Lechonera,el-nuevo-bohio-lechonera-bronx,Puerto Rican,"[{u'alias': u'latin', u'title': u'Latin American'}, {u'alias': u'spanish', u'title': u'Spanish'}, {u'alias': u'puertorican', u'title': u'Puerto Rican'}]",POINT (-73.88802 40.84402),-73.88802,40.84402,"[791 E Tremont Ave, Bronx, NY 10460]",Bronx,NY,10460.0,2.0,3.5,77,0,0,0,0,hispanic
271,e9-945WlnSo5dqQoMmboKA,Taino's Kitchen,tainos-kitchen-newark,Puerto Rican,"[{u'alias': u'puertorican', u'title': u'Puerto Rican'}]",POINT (-74.162429 40.781129),-74.162429,40.781129,"[849 Mt Prospect Ave, Newark, NJ 07104]",Newark,NJ,7104.0,2.0,4.0,32,0,0,0,0,hispanic
272,IPMPplvXeOOMLAvEc_ZNrA,ME Casa Express Food Truck,me-casa-express-food-truck-jersey-city-3,Puerto Rican,"[{u'alias': u'foodtrucks', u'title': u'Food Trucks'}, {u'alias': u'puertorican', u'title': u'Puerto Rican'}, {u'alias': u'latin', u'title': u'Latin American'}]",POINT (-74.04496999999999 40.72218),-74.04496999999999,40.72218,"[Jersey City, NJ 07302]",Jersey City,NJ,7302.0,,5.0,24,0,0,0,0,hispanic
273,UpCHmvRNZWHaLsf6PHdDug,La Isla Restaurant,la-isla-restaurant-brooklyn-2,Puerto Rican,"[{u'alias': u'dominican', u'title': u'Dominican'}, {u'alias': u'puertorican', u'title': u'Puerto Rican'}]",POINT (-73.958061 40.708728),-73.958061,40.708728,"[293 Broadway, Brooklyn, NY 11211]",Brooklyn,NY,11211.0,1.0,4.0,41,0,0,0,0,hispanic
274,q9YfTpJWNvRpl40rJSW5cg,El Lechon De Negron,el-lechon-de-negron-union-2,Puerto Rican,"[{u'alias': u'foodtrucks', u'title': u'Food Trucks'}, {u'alias': u'puertorican', u'title': u'Puerto Rican'}, {u'alias': u'sandwiches', u'title': u'Sandwiches'}]",POINT (-74.25389200000001 40.671248),-74.25389200000001,40.671248,"[1331 Magie Ave, Union, NJ 07083]",Union,NJ,7083.0,1.0,4.0,133,0,0,0,0,hispanic
275,9b_uHdF_kvM5nwZBQYpl3w,Salsa Latina Restaurant,salsa-latina-restaurant-matawan,Puerto Rican,"[{u'alias': u'latin', u'title': u'Latin American'}, {u'alias': u'puertorican', u'title': u'Puerto Rican'}, {u'alias': u'sandwiches', u'title': u'Sandwiches'}]",POINT (-74.2682828754 40.4233139008),-74.2682828754,40.4233139008,"[343 State Rte 34, Matawan, NJ 07747]",Matawan,NJ,7747.0,2.0,3.0,148,0,0,0,1,hispanic
276,6BHSiKj3BAbaC6oVEheVkA,The New Borinquen Restaurant,the-new-borinquen-restaurant-newark,Puerto Rican,"[{u'alias': u'latin', u'title': u'Latin American'}, {u'alias': u'puertorican', u'title': u'Puerto Rican'}]",POINT (-74.18629 40.75867),-74.18629,40.75867,"[252 Park Ave, Newark, NJ 07107]",Newark,NJ,7107.0,1.0,3.5,8,0,0,0,0,hispanic
277,j62x-8NvzhpvF-fBbrzhgQ,Mari's Kitchen,maris-kitchen-garfield,Puerto Rican,"[{u'alias': u'puertorican', u'title': u'Puerto Rican'}]",POINT (-74.110545516 40.8848154545),-74.110545516,40.8848154545,"[20 Plauderville Ave, Garfield, NJ 07026]",Garfield,NJ,7026.0,1.0,5.0,5,0,1,1,0,hispanic
278,5g5HJqOf8BRpyJsy-u-buA,El Nuevo Yauca Restaurant,el-nuevo-yauca-restaurant-brooklyn-2,Puerto Rican,"[{u'alias': u'puertorican', u'title': u'Puerto Rican'}]",POINT (-73.93651 40.70155),-73.93651,40.70155,"[465 Bushwick Ave, Brooklyn, NY 11206]",Brooklyn,NY,11206.0,1.0,4.5,3,0,0,0,0,hispanic
279,ngQD_KsgTyY132oyvdjUIw,Cater2u,cater2u-bronx,Puerto Rican,"[{u'alias': u'puertorican', u'title': u'Puerto Rican'}, {u'alias': u'latin', u'title': u'Latin American'}]",POINT (-73.87646260050001 40.8210024439),-73.8764626005,40.8210024439,"[Bronx, NY 10473]",Bronx,NY,10473.0,,5.0,5,0,0,0,0,hispanic
280,ucmwboeLLt12_8fg1ulquw,La Casa,la-casa-hoboken,Puerto Rican,"[{u'alias': u'cuban', u'title': u'Cuban'}, {u'alias': u'dominican', u'title': u'Dominican'}, {u'alias': u'puertorican', u'title': u'Puerto Rican'}]",POINT (-74.0301 40.73689),-74.0301,40.73689,"[54 Newark St, Hoboken, NJ 07030]",Hoboken,NJ,7030.0,2.0,4.5,64,0,1,1,0,hispanic
281,kNwFgdcQdNkYmUHvj30tOg,Old San Juan Express,old-san-juan-express-hackensack,Puerto Rican,"[{u'alias': u'spanish', u'title': u'Spanish'}, {u'alias': u'puertorican', u'title': u'Puerto Rican'}, {u'alias': u'latin', u'title': u'Latin American'}]",POINT (-74.065 40.875833),-74.065,40.875833,"[260 S Summit Ave, Hackensack, NJ 07601]",Hackensack,NJ,7601.0,2.0,2.5,89,0,1,1,0,hispanic
282,JX5nO9hUGZQTpSksyyEdJA,Latin Kitchen Truck,latin-kitchen-truck-new-york,Puerto Rican,"[{u'alias': u'foodtrucks', u'title': u'Food Trucks'}, {u'alias': u'puertorican', u'title': u'Puerto Rican'}]",POINT (-73.97432785479999 40.754908391),-73.9743278548,40.754908391,"[100-122 E 47th St, New York, NY 10017]",New York,NY,10017.0,1.0,3.0,9,0,0,0,0,hispanic
283,Cf_t7vFv2t9tmBZZCMEd-A,O'LaLa Empanadas,o-lala-empanadas-jersey-city,Puerto Rican,"[{u'alias': u'latin', u'title': u'Latin American'}, {u'alias': u'puertorican', u'title': u'Puerto Rican'}, {u'alias': u'empanadas', u'title': u'Empanadas'}]",POINT (-74.07250909999999 40.7172469),-74.07250909999999,40.7172469,"[600 Communipaw Ave, Jersey City, NJ 07304]",Jersey City,NJ,7304.0,1.0,4.0,212,0,1,1,1,hispanic
284,5gqXTYjiUuanvzKPx_nQhQ,Surrender Cafe,surrender-cafe-woodbridge,Puerto Rican,"[{u'alias': u'latin', u'title': u'Latin American'}, {u'alias': u'spanish', u'title': u'Spanish'}, {u'alias': u'puertorican', u'title': u'Puerto Rican'}]",POINT (-74.2862758524 40.5632645234),-74.2862758524,40.5632645234,"[695 Rt 35 Amboy Ave, Woodbridge, NJ 07095]",Woodbridge,NJ,7095.0,2.0,4.0,193,0,0,1,0,hispanic
285,HAGJ2QVvPrhfN7RmMdpPKA,Kiosko Boricua,kiosko-boricua-elizabeth,Puerto Rican,"[{u'alias': u'puertorican', u'title': u'Puerto Rican'}]",POINT (-74.23036 40.65631),-74.23036,40.65631,"[713 Rahway Ave, Elizabeth, NJ 07202]",Elizabeth,NJ,7202.0,,2.0,4,0,0,0,0,hispanic
286,W04gsvJWVjA45FSgX5IgFw,El Nuevo Bohio,el-nuevo-bohio-bronx,Puerto Rican,"[{u'alias': u'spanish', u'title': u'Spanish'}, {u'alias': u'puertorican', u'title': u'Puerto Rican'}]",POINT (-73.91079001129999 40.8305903575),-73.9107900113,40.8305903575,"[1155 Webster Ave, Bronx, NY 10456]",Bronx,NY,10456.0,1.0,3.5,26,0,0,0,0,hispanic
287,c8qiZljDWWF06D8XXPzIKw,Lamallorca,lamallorca-queens,Puerto Rican,"[{u'alias': u'foodtrucks', u'title': u'Food Trucks'}, {u'alias': u'puertorican', u'title': u'Puerto Rican'}, {u'alias': u'sandwiches', u'title': u'Sandwiches'}]",POINT (-73.86981141439999 40.5657334101),-73.86981141439999,40.5657334101,"[16702 Rockaway Beach Blvd, Riis Park Beach Bazaar, Queens, NY 11694]",Queens,NY,11694.0,,5.0,1,0,0,0,0,hispanic
288,WNGqj-SkAAEt97R9kxCFWg,Empanada Spanish Grill,empanada-spanish-grill-clifton,Puerto Rican,"[{u'alias': u'empanadas', u'title': u'Empanadas'}, {u'alias': u'puertorican', u'title': u'Puerto Rican'}]",POINT (-74.1582487 40.8456249),-74.1582487,40.845624900000004,"[8 Market St, Clifton, NJ 07012]",Clifton,NJ,7012.0,1.0,4.0,102,0,0,0,0,hispanic
289,2XZqGWOrjvdDXc4S0Mt9jA,Rincon Latino,rincon-latino-newark,Puerto Rican,"[{u'alias': u'latin', u'title': u'Latin American'}, {u'alias': u'puertorican', u'title': u'Puerto Rican'}, {u'alias': u'spanish', u'title': u'Spanish'}]",POINT (-74.16006999999999 40.78089),-74.16006999999999,40.78089,"[849 Summer Ave, Newark, NJ 07104]",Newark,NJ,7104.0,,4.5,3,0,0,0,0,hispanic
290,zioFRhi7Q8ADmXbd2Q7SHQ,El Palmar Restaurant,el-palmar-restaurant-elizabeth,Puerto Rican,"[{u'alias': u'cuban', u'title': u'Cuban'}, {u'alias': u'puertorican', u'title': u'Puerto Rican'}]",POINT (-74.1985158 40.6548998),-74.1985158,40.654899799999995,"[523 Elizabeth Ave, Elizabeth, NJ 07206]",Elizabeth,NJ,7206.0,2.0,3.0,57,0,1,1,1,hispanic
291,Li4D5w6VNYDYFJnEgybfqg,Leo's Café & El Guame Restaurant,leos-café-and-el-guame-restaurant-newark,Puerto Rican,"[{u'alias': u'latin', u'title': u'Latin American'}, {u'alias': u'puertorican', u'title': u'Puerto Rican'}]",POINT (-74.16262890000002 40.7707396),-74.16262890000002,40.7707396,"[598 Broadway, Newark, NJ 07104]",Newark,NJ,7104.0,1.0,4.5,2,0,0,0,0,hispanic
292,Izd8h4wO3A3MWBndtoOe6A,Karini II Restaurant,karini-ii-restaurant-perth-amboy,Puerto Rican,"[{u'alias': u'spanish', u'title': u'Spanish'}, {u'alias': u'latin', u'title': u'Latin American'}, {u'alias': u'puertorican', u'title': u'Puerto Rican'}]",POINT (-74.2741089 40.51390079999999),-74.2741089,40.513900799999995,"[299 New Brunswick Ave, Perth Amboy, NJ 08861]",Perth Amboy,NJ,8861.0,2.0,4.0,21,0,0,0,0,hispanic
293,WLoES9o_h_xC3-Z07jnTRQ,Coconut Cafe,coconut-cafe-paterson,Puerto Rican,"[{u'alias': u'puertorican', u'title': u'Puerto Rican'}, {u'alias': u'coffee', u'title': u'Coffee & Tea'}]",POINT (-74.16405400000001 40.899955),-74.16405400000001,40.899955,"[789-791 Main St, Paterson, NJ 07503]",Paterson,NJ,7503.0,,5.0,8,0,0,0,0,hispanic
