,id,name,alias,cat,categories,geometry,longitude,latitude,address,city,state,zipcode,price,rating,reviews,closed,tr_pickup,tr_delivery,tr_restaurant_reservation,region
0,LXOvAoDO9QomXlvYdc0rrQ,Big  Taste  Halal  Food,big-taste-halal-food-bronx,Halal,"[{'alias': 'mideastern', 'title': 'Middle Eastern'}, {'alias': 'halal', 'title': 'Halal'}, {'alias': 'foodstands', 'title': 'Food Stands'}]",POINT (-73.845446217529 40.84897620408921),-73.845446217529,40.84897620408921,"['1825 Eastchester Rd', 'Bronx, NY 10461']",Bronx,NY,10461.0,1.0,5.0,32,0,0,0,0,halal
1,Qu3HTqNc9V2BEtHLSGbc7w,Packsun Halal Chicken,packsun-halal-chicken-bronx,Halal,"[{'alias': 'halal', 'title': 'Halal'}, {'alias': 'hotdogs', 'title': 'Fast Food'}, {'alias': 'bangladeshi', 'title': 'Bangladeshi'}]",POINT (-73.8523728400469 40.8339280118632),-73.8523728400469,40.8339280118632,"['2160 Westchester Ave', 'Bronx, NY 10462']",Bronx,NY,10462.0,1.0,4.5,26,0,0,0,0,halal
2,AWEKi6V57SErHtAMWiN3Yg,Halal Kitchen Chinese Restaurant,halal-kitchen-chinese-restaurant-bronx,Halal,"[{'alias': 'halal', 'title': 'Halal'}, {'alias': 'chinese', 'title': 'Chinese'}]",POINT (-73.85682798922059 40.833817917864),-73.85682798922059,40.833817917863996,"['2023 Westchester Ave', 'Bronx, NY 10462']",Bronx,NY,10462.0,1.0,4.5,6,0,0,0,0,halal
3,hXZR1z5ZFRjhXRPaZ1Oh_g,Tony's Halal Food,tonys-halal-food-bronx,Halal,"[{'alias': 'foodtrucks', 'title': 'Food Trucks'}, {'alias': 'halal', 'title': 'Halal'}]",POINT (-73.891453702655 40.8743215931494),-73.891453702655,40.874321593149396,"['156-198 Bedford Park Blvd W', 'Bronx, NY 10468']",Bronx,NY,10468.0,1.0,4.0,14,0,0,0,0,halal
4,SExVenfR3ScUzIJHdUpxuw,Aman,aman-bronx,Halal,"[{'alias': 'pakistani', 'title': 'Pakistani'}, {'alias': 'indpak', 'title': 'Indian'}, {'alias': 'halal', 'title': 'Halal'}]",POINT (-73.8794078 40.885147),-73.8794078,40.885147,"['3594 Jerome Ave', 'Bronx, NY 10452']",Bronx,NY,10452.0,1.0,4.5,15,0,0,0,0,halal
5,xEnNFXtMLDF5kZDxfaCJgA,The Halal Guys,the-halal-guys-new-york-2,Halal,"[{'alias': 'foodstands', 'title': 'Food Stands'}, {'alias': 'mideastern', 'title': 'Middle Eastern'}, {'alias': 'halal', 'title': 'Halal'}]",POINT (-73.979229927063 40.76175595827061),-73.979229927063,40.761755958270605,"['W 53rd St 6th Ave', 'New York, NY 10019']",New York,NY,10019.0,1.0,4.5,8762,0,0,0,1,halal
6,ahKL-52Ogn7iPFjhQbbb3w,Carifesta Restaurant,carifesta-restaurant-bronx,Halal,"[{'alias': 'halal', 'title': 'Halal'}, {'alias': 'caribbean', 'title': 'Caribbean'}]",POINT (-73.85680000000001 40.89485),-73.8568,40.89485,"['4251 White Plains Rd', 'Bronx, NY 10466']",Bronx,NY,10466.0,1.0,4.0,11,0,0,0,0,halal
7,G35omn4UI9EHdjkh406b2g,Yonkers Halal Fried Chicken,yonkers-halal-fried-chicken-yonkers,Halal,"[{'alias': 'chicken_wings', 'title': 'Chicken Wings'}, {'alias': 'halal', 'title': 'Halal'}, {'alias': 'hotdogs', 'title': 'Fast Food'}]",POINT (-73.86287 40.92208),-73.86287,40.92208,"['801 Yonkers Ave', 'Yonkers, NY 10704']",Yonkers,NY,10704.0,1.0,3.5,56,0,0,0,0,halal
8,HGm3itKMaPIjUd-_qPICcQ,AKS Halal Deli & Grill,aks-halal-deli-and-grill-norwood,Halal,"[{'alias': 'halal', 'title': 'Halal'}, {'alias': 'hotdogs', 'title': 'Fast Food'}, {'alias': 'grocery', 'title': 'Grocery'}]",POINT (-73.87788399999999 40.872757),-73.877884,40.872757,"['319 E 204th St', 'Norwood, NY 10467']",Norwood,NY,10467.0,1.0,3.5,7,0,1,1,0,halal
9,TcX3VlbQMVw8zoZzEeNREQ,Fordham Fried Seafood And Chicken,fordham-fried-seafood-and-chicken-bronx,Halal,"[{'alias': 'hotdogs', 'title': 'Fast Food'}, {'alias': 'halal', 'title': 'Halal'}, {'alias': 'seafood', 'title': 'Seafood'}]",POINT (-73.89718499999999 40.86155120000001),-73.897185,40.86155120000001,"['2468 Grand Concourse', 'Bronx, NY 10458']",Bronx,NY,10458.0,1.0,4.5,20,0,0,0,0,halal
10,cEB3DcrN7xDyXiswWNe47Q,Halal Munchies,halal-munchies-fresh-meadows,Halal,"[{'alias': 'halal', 'title': 'Halal'}, {'alias': 'hotdogs', 'title': 'Fast Food'}]",POINT (-73.804631 40.7325914),-73.804631,40.7325914,"['69-21 164th St', 'Fresh Meadows, NY 11365']",Fresh Meadows,NY,11365.0,1.0,4.5,48,0,1,1,0,halal
11,KctObVBfd5k9a0V7LX6vaw,Halal Cart,halal-cart-manhattan-28,Halal,"[{'alias': 'halal', 'title': 'Halal'}, {'alias': 'meats', 'title': 'Meat Shops'}]",POINT (-73.9423521447052 40.8423224187849),-73.9423521447052,40.8423224187849,"['168TH St And Fort Washington Ave', 'Across the Hammer Health Sciences Building', 'Manhattan, NY 10032']",Manhattan,NY,10032.0,1.0,4.0,22,0,0,0,0,halal
12,xdC39gme2SJEj7KF2YAAUA,Zaiqa Halal Food Cart,zaiqa-halal-food-cart-flushing,Halal,"[{'alias': 'halal', 'title': 'Halal'}, {'alias': 'foodtrucks', 'title': 'Food Trucks'}]",POINT (-73.80871014654029 40.7638235668054),-73.80871014654029,40.7638235668054,"['156 St And Northern Blvd', 'Flushing, NY 11354']",Flushing,NY,11354.0,1.0,4.5,48,0,0,0,0,halal
13,U9F2zvPCGrPWn2TQ2geBBw,Halalish,halalish-flushing,Halal,"[{'alias': 'halal', 'title': 'Halal'}, {'alias': 'burgers', 'title': 'Burgers'}, {'alias': 'foodtrucks', 'title': 'Food Trucks'}]",POINT (-73.82908140000001 40.7577743),-73.8290814,40.7577743,"['41-17 Main St', 'Flushing, NY 11355']",Flushing,NY,11355.0,1.0,4.5,62,0,1,0,0,halal
14,76U221_Vj7VyIE13ghT2ag,The Halal Bros of NY,the-halal-bros-of-ny-bellerose,Halal,"[{'alias': 'halal', 'title': 'Halal'}, {'alias': 'chickenshop', 'title': 'Chicken Shop'}, {'alias': 'mexican', 'title': 'Mexican'}]",POINT (-73.7219918 40.7251211),-73.7219918,40.7251211,"['24601 Jericho Tnpk', 'Bellerose, NY 11426']",Bellerose,NY,11426.0,1.0,4.0,130,0,1,0,0,halal
15,gNJsaJ2SoErQNbxZmwHw3w,Afridi's Halal Food,afridis-halal-food-little-neck,Halal,"[{'alias': 'halal', 'title': 'Halal'}, {'alias': 'streetvendors', 'title': 'Street Vendors'}]",POINT (-73.726641 40.7640467),-73.726641,40.7640467,"['25455 Horace Harding Expy', 'Little Neck, NY 11362']",Little Neck,NY,11362.0,1.0,5.0,38,0,0,0,0,halal
16,FQ-hqgnfmPnl23sw6wphGw,Hut Fried Chicken & Pizza,hut-fried-chicken-and-pizza-bronx-3,Halal,"[{'alias': 'pizza', 'title': 'Pizza'}, {'alias': 'halal', 'title': 'Halal'}, {'alias': 'food', 'title': 'Food'}, {'alias': 'tradamerican', 'title': 'American (Traditional)'}]",POINT (-73.86336999999997 40.83561),-73.86336999999997,40.83561,"['1401 White Plains Rd', 'Bronx, NY 10462']",Bronx,NY,10462.0,1.0,4.0,2,0,0,0,0,halal
17,kyjf5fISpqI0UWwMd2NiWg,The Halal Cart,the-halal-cart-jersey-city,Halal,"[{'alias': 'foodtrucks', 'title': 'Food Trucks'}, {'alias': 'halal', 'title': 'Halal'}]",POINT (-74.06501999999998 40.73173),-74.06501999999998,40.73173,"['Jersey City, NJ 07306']",Jersey City,NJ,7306.0,1.0,4.5,19,0,0,0,0,halal
18,WEDQ3ysOS2twleC7TZlmGw,The Halal Guys,the-halal-guys-new-york-7,Halal,"[{'alias': 'halal', 'title': 'Halal'}, {'alias': 'mideastern', 'title': 'Middle Eastern'}]",POINT (-73.9709761352962 40.7935457420759),-73.9709761352962,40.7935457420759,"['720 Amsterdam Ave', 'New York, NY 10025']",New York,NY,10025.0,1.0,3.5,321,0,0,0,0,halal
19,HgHVeshLjjEJpwzdlMox4Q,Phat Platters,phat-platters-paramus,Halal,"[{'alias': 'mediterranean', 'title': 'Mediterranean'}, {'alias': 'halal', 'title': 'Halal'}, {'alias': 'chicken_wings', 'title': 'Chicken Wings'}]",POINT (-74.07290400000002 40.954158),-74.07290400000002,40.954158,"['490 Rt 17 N', 'Paramus, NJ 07652']",Paramus,NJ,7652.0,1.0,4.0,72,0,0,0,0,halal
20,2N1y8Cv7R92lDYia_eruCw,Platter King,platter-king-north-bergen,Halal,"[{'alias': 'salad', 'title': 'Salad'}, {'alias': 'halal', 'title': 'Halal'}, {'alias': 'mediterranean', 'title': 'Mediterranean'}]",POINT (-74.00733000000002 40.80032),-74.00733000000002,40.80032,"['7704 Bergenline Ave', 'North Bergen, NJ 07047']",North Bergen,NJ,7047.0,1.0,4.5,96,0,1,1,0,halal
21,O-VPSZK6QAuJPyJgTP3w7g,Juicy Halal Mediterranean,juicy-halal-mediterranean-hackensack,Halal,"[{'alias': 'halal', 'title': 'Halal'}, {'alias': 'mediterranean', 'title': 'Mediterranean'}]",POINT (-74.06577 40.87649),-74.06577,40.87649,"['370 W Pleasantview Ave', 'Hackensack, NJ 07601']",Hackensack,NJ,7601.0,1.0,4.0,174,0,0,0,0,halal
22,TltwCBJXifqJ1Ruy3qCKyQ,Gyro96,gyro96-new-york,Halal,"[{'alias': 'falafel', 'title': 'Falafel'}, {'alias': 'halal', 'title': 'Halal'}, {'alias': 'sandwiches', 'title': 'Sandwiches'}]",POINT (-73.95119238413091 40.7861132906005),-73.9511923841309,40.7861132906005,"['141 E 96th St', 'New York, NY 10128']",New York,NY,10128.0,1.0,4.5,99,0,1,1,0,halal
23,50Fl_LqDRpf_4lLd2ZbF8g,Hamza & Madina,hamza-and-madina-glen-oaks,Halal,"[{'alias': 'streetvendors', 'title': 'Street Vendors'}, {'alias': 'halal', 'title': 'Halal'}, {'alias': 'falafel', 'title': 'Falafel'}]",POINT (-73.713297 40.73637700000001),-73.713297,40.73637700000001,"['253-11 Hillside Ave', 'Glen Oaks, NY 11004']",Glen Oaks,NY,11004.0,1.0,4.0,103,0,0,0,0,halal
24,AvTezlpt3GXTdSEnXbHP4w,Fatima's Halal Kitchen,fatimas-halal-kitchen-astoria,Halal,"[{'alias': 'chinese', 'title': 'Chinese'}, {'alias': 'halal', 'title': 'Halal'}]",POINT (-73.9275405041124 40.7631186084319),-73.9275405041124,40.763118608431895,"['25-25 Broadway', 'Astoria, NY 11106']",Astoria,NY,11106.0,1.0,4.0,314,0,0,0,0,halal
25,UtknyDJ_DPut-FKRqs0wpQ,Royal Grill Halal Food,royal-grill-halal-food-new-york-2,Halal,"[{'alias': 'halal', 'title': 'Halal'}, {'alias': 'foodtrucks', 'title': 'Food Trucks'}, {'alias': 'streetvendors', 'title': 'Street Vendors'}]",POINT (-73.98316 40.75614),-73.98316,40.75614,"['44TH St And 6th Ave', 'New York, NY 10018']",New York,NY,10018.0,1.0,5.0,147,0,1,0,0,halal
26,tNTXNCUta735nGb0nfSrKQ,The Casbah - Halal Cart,the-casbah-halal-cart-new-york,Halal,"[{'alias': 'halal', 'title': 'Halal'}, {'alias': 'streetvendors', 'title': 'Street Vendors'}]",POINT (-73.98171365261079 40.773737186292),-73.9817136526108,40.773737186292,"['Corner of 66th St & Columbus Ave', 'New York, NY 10023']",New York,NY,10023.0,1.0,4.5,218,0,0,0,0,halal
27,GcBZDgOKOP-RkH_mI-DS9A,The Halal Guys,the-halal-guys-new-york-8,Halal,"[{'alias': 'mideastern', 'title': 'Middle Eastern'}, {'alias': 'halal', 'title': 'Halal'}]",POINT (-73.98439063610691 40.7323060751209),-73.98439063610691,40.732306075120896,"['307 East 14th St', 'New York, NY 10003']",New York,NY,10003.0,1.0,3.5,643,0,0,0,0,halal
28,P7uT8WJu5_8ma7VtjBW-tQ,Fresco Fusion,fresco-fusion-bergenfield,Halal,"[{'alias': 'tradamerican', 'title': 'American (Traditional)'}, {'alias': 'mexican', 'title': 'Mexican'}, {'alias': 'halal', 'title': 'Halal'}]",POINT (-73.996652 40.924339),-73.996652,40.924339,"['103 S Washington Ave', 'Bergenfield, NJ 07621']",Bergenfield,NJ,7621.0,1.0,4.0,47,0,1,1,0,halal
29,HYW2O2qycmFiGUNt_TlyPA,Shawarmania,shawarmania-astoria,Halal,"[{'alias': 'halal', 'title': 'Halal'}, {'alias': 'mideastern', 'title': 'Middle Eastern'}, {'alias': 'mediterranean', 'title': 'Mediterranean'}]",POINT (-73.9119036 40.7749304),-73.9119036,40.7749304,"['22-49 31st St', 'Astoria, NY 11105']",Astoria,NY,11105.0,1.0,4.0,191,0,1,1,0,halal
30,jUD3vbZS_MGkDk2yfBXZuQ,Queen Sheeba,queen-sheeba-new-york,Halal,"[{'alias': 'mideastern', 'title': 'Middle Eastern'}, {'alias': 'halal', 'title': 'Halal'}]",POINT (-73.94471443513279 40.8208581437951),-73.9447144351328,40.8208581437951,"['317 W 141st St', 'New York, NY 10030']",New York,NY,10030.0,1.0,4.0,56,0,0,0,0,halal
31,8EvV2_s51cqgKwB6ZAaBtA,Big Boss Halal Food,big-boss-halal-food-new-york,Halal,"[{'alias': 'foodstands', 'title': 'Food Stands'}, {'alias': 'halal', 'title': 'Halal'}]",POINT (-73.95515999999998 40.7649199),-73.95515999999998,40.7649199,"['York Ave & E 69th St', 'New York, NY 10021']",New York,NY,10021.0,1.0,4.5,89,0,0,0,0,halal
32,BaTfJjz2DoJwOQz5eOrqNA,Mahmoud's Corner,mahmouds-corner-astoria,Halal,"[{'alias': 'halal', 'title': 'Halal'}, {'alias': 'mideastern', 'title': 'Middle Eastern'}, {'alias': 'foodtrucks', 'title': 'Food Trucks'}]",POINT (-73.920897 40.756804),-73.920897,40.756804,"['NW Corner Of 34th Ave And Steinway St', 'Astoria, NY 11106']",Astoria,NY,11106.0,1.0,4.5,94,0,0,0,0,halal
33,L6DAp6L1ZJKeeDN2PwoOLQ,Adel's Famous Halal Food,adels-famous-halal-food-new-york,Halal,"[{'alias': 'mideastern', 'title': 'Middle Eastern'}, {'alias': 'foodtrucks', 'title': 'Food Trucks'}, {'alias': 'halal', 'title': 'Halal'}]",POINT (-73.99193000000002 40.76394000000001),-73.99193000000002,40.76394000000001,"['49th & 6th', 'New York, NY 10019']",New York,NY,10019.0,1.0,4.5,179,0,0,0,0,halal
34,cP7vkHiDU0emIPrEexv5vA,Sammy's Halal Food,sammys-halal-food-jackson-heights,Halal,"[{'alias': 'mideastern', 'title': 'Middle Eastern'}, {'alias': 'foodstands', 'title': 'Food Stands'}, {'alias': 'halal', 'title': 'Halal'}]",POINT (-73.89239000000001 40.74712),-73.89239,40.74712,"['73RD St And Broadway', 'Jackson Heights, NY 11372']",Jackson Heights,NY,11372.0,1.0,4.0,360,0,1,0,0,halal
35,Tx3pJnxQo00twdxjvjc8Ow,Habibi Halal Food,habibi-halal-food-new-york,Halal,"[{'alias': 'halal', 'title': 'Halal'}, {'alias': 'foodstands', 'title': 'Food Stands'}]",POINT (-73.98552009999999 40.7401285),-73.98552009999999,40.7401285,"['115 E 23rd St', 'New York, NY 10011']",New York,NY,10011.0,1.0,4.5,30,0,0,0,0,halal
36,ig8ApBesC1vNl987_gk7pQ,Farook Halal Food,farook-halal-food-new-york,Halal,"[{'alias': 'halal', 'title': 'Halal'}, {'alias': 'streetvendors', 'title': 'Street Vendors'}]",POINT (-73.98824950462698 40.7336773100302),-73.98824950462698,40.7336773100302,"['142 E 14th St', 'New York, NY 10003']",New York,NY,10003.0,1.0,5.0,18,0,0,0,0,halal
37,tCbauBnrZJ2aB5M-EQW6CA,Shahzada,shahzada-forest-hills,Halal,"[{'alias': 'halal', 'title': 'Halal'}, {'alias': 'foodstands', 'title': 'Food Stands'}]",POINT (-73.8432915508747 40.7214941980429),-73.8432915508747,40.7214941980429,"['Queens Blvd & 71st Ave', 'Forest Hills, NY 11375']",Forest Hills,NY,11375.0,1.0,4.5,22,0,0,0,0,halal
38,Fijpg34Lr2TIMCbPVJNpog,Halal Sandwich Shop,halal-sandwich-shop-astoria,Halal,"[{'alias': 'halal', 'title': 'Halal'}, {'alias': 'sandwiches', 'title': 'Sandwiches'}]",POINT (-73.91266999999998 40.7663),-73.91266999999998,40.7663,"['25-61 Steinway St', 'Astoria, NY 11103']",Astoria,NY,11103.0,1.0,4.0,80,0,0,0,0,halal
39,dLc8BkDIyws4JZ7vGVZgJw,Best Gourmet Deli and Grill,best-gourmet-deli-and-grill-new-york,Halal,"[{'alias': 'delis', 'title': 'Delis'}, {'alias': 'halal', 'title': 'Halal'}, {'alias': 'sandwiches', 'title': 'Sandwiches'}]",POINT (-73.928657 40.854282),-73.928657,40.854282,"['494 Audubon Ave', 'New York, NY 10040']",New York,NY,10040.0,1.0,5.0,1,0,0,0,0,halal
40,T8WDcV3eb31Lu26aFdgXGA,Mando Halal Food,mando-halal-food-long-island-city,Halal,"[{'alias': 'halal', 'title': 'Halal'}, {'alias': 'foodstands', 'title': 'Food Stands'}]",POINT (-73.9357911 40.7446615),-73.9357911,40.7446615,"['30-30 Thomson Ave', 'Long Island City, NY 11101']",Long Island City,NY,11101.0,1.0,5.0,9,0,0,0,0,halal
41,CypNLOSll5QOSeytI7vYQg,Shah's Halal Food,shahs-halal-food-sunnyside,Halal,"[{'alias': 'halal', 'title': 'Halal'}, {'alias': 'foodtrucks', 'title': 'Food Trucks'}]",POINT (-73.9195425573355 40.7419122977856),-73.9195425573355,40.7419122977856,"['4520-4698 46th St', 'Sunnyside, NY 11104']",Sunnyside,NY,11104.0,1.0,5.0,11,0,0,0,0,halal
42,8YEv3FfB2f45Gui2QW2KNA,Sarwari Halal Cart,sarwari-halal-cart-east-flushing,Halal,"[{'alias': 'foodstands', 'title': 'Food Stands'}, {'alias': 'halal', 'title': 'Halal'}]",POINT (-73.82192173751341 40.7531700986934),-73.8219217375134,40.7531700986934,"['Kissena Blvd & Elder Ave', 'East Flushing, NY 11355']",East Flushing,NY,11355.0,1.0,4.5,12,0,0,0,0,halal
43,JvQwPhLtsBTK38sTYoeDeQ,S & J,s-and-j-astoria,Halal,"[{'alias': 'moroccan', 'title': 'Moroccan'}, {'alias': 'halal', 'title': 'Halal'}, {'alias': 'mideastern', 'title': 'Middle Eastern'}]",POINT (-73.9251025358151 40.7688679722186),-73.9251025358151,40.7688679722186,"['29-20 Crescent St', 'Astoria, NY 11102']",Astoria,NY,11102.0,1.0,5.0,72,0,0,0,0,halal
44,JyqduOJM-qPo-pMZ47bjnQ,Halal Food Brothers,halal-food-brothers-new-york,Halal,"[{'alias': 'foodstands', 'title': 'Food Stands'}, {'alias': 'halal', 'title': 'Halal'}]",POINT (-73.98849427700041 40.7339002937078),-73.98849427700041,40.7339002937078,"['127 E 14th St', 'New York, NY 10003']",New York,NY,10003.0,1.0,4.5,20,0,0,0,0,halal
45,nf-jBvS61Tgb_IW2uAhAfw,Halal Cart,halal-cart-astoria,Halal,"[{'alias': 'halal', 'title': 'Halal'}, {'alias': 'foodstands', 'title': 'Food Stands'}]",POINT (-73.91126445914951 40.7758135033417),-73.9112644591495,40.7758135033417,"['Ditmars Blvd And 31-16 St', 'Astoria, NY 11105']",Astoria,NY,11105.0,1.0,4.0,10,0,0,0,0,halal
46,49vWaeafwrdI7U2YdvgiDA,Yi Lan Halal Restaurant,yi-lan-halal-restaurant-flushing,Halal,"[{'alias': 'chinese', 'title': 'Chinese'}, {'alias': 'halal', 'title': 'Halal'}]",POINT (-73.82706 40.75324000000001),-73.82706,40.75324000000001,"['42-79A Main St', 'Flushing, NY 11355']",Flushing,NY,11355.0,1.0,3.5,56,0,1,1,0,halal
47,aiIhXRH_gPrKeYZtZEawqA,Mix Platter,mix-platter-secaucus,Halal,"[{'alias': 'halal', 'title': 'Halal'}, {'alias': 'mediterranean', 'title': 'Mediterranean'}]",POINT (-74.05698000000002 40.79151),-74.05698000000002,40.79151,"['101 Plaza Ctr', 'Secaucus, NJ 07094']",Secaucus,NJ,7094.0,1.0,3.0,20,0,1,1,0,halal
48,oas91y1CUpmCcLnzp_4X6Q,Nour's Halal 2 Go,nours-halal-2-go-new-york-3,Halal,"[{'alias': 'halal', 'title': 'Halal'}, {'alias': 'foodstands', 'title': 'Food Stands'}]",POINT (-73.8838344 40.7458043),-73.8838344,40.7458043,"['Corner of Baxter Ave & Judge St', 'New York, NY 11373']",New York,NY,11373.0,1.0,4.5,13,0,0,0,0,halal
49,-qO9s7w4krZ_Wfziqzn7Hw,Adel's Halal Food,adels-halal-food-new-york-2,Halal,"[{'alias': 'foodstands', 'title': 'Food Stands'}, {'alias': 'halal', 'title': 'Halal'}]",POINT (-74.00554 40.70578),-74.00554,40.70578,"['Maiden Ln & Front St', 'New York, NY 10038']",New York,NY,10038.0,1.0,4.0,66,0,0,0,0,halal
50,m-t0795rAIctj_pEy30pmg,Habiba B&B Halal Food Truck,habiba-b-and-b-halal-food-truck-sunnyside,Halal,"[{'alias': 'foodtrucks', 'title': 'Food Trucks'}, {'alias': 'halal', 'title': 'Halal'}]",POINT (-73.91866590000002 40.74332490000001),-73.91866590000002,40.74332490000001,"['Corner Of 46th St And Queens Blvd', 'Sunnyside, NY 11104']",Sunnyside,NY,11104.0,1.0,4.5,25,0,0,0,0,halal
51,QFjyGK3DtTGJ9-g8E7ofCw,Halal Kitchen,halal-kitchen-new-york,Halal,"[{'alias': 'halal', 'title': 'Halal'}, {'alias': 'chinese', 'title': 'Chinese'}]",POINT (-73.94081857873979 40.7930498507672),-73.9408185787398,40.793049850767204,"['2135 2nd Ave', 'New York, NY 10029']",New York,NY,10029.0,1.0,3.5,12,0,0,0,0,halal
52,uiMACekp57nTQJaCwrQ5_w,Farid Kebab,farid-kebab-astoria,Halal,"[{'alias': 'halal', 'title': 'Halal'}, {'alias': 'foodstands', 'title': 'Food Stands'}, {'alias': 'egyptian', 'title': 'Egyptian'}]",POINT (-73.9119178368163 40.7675404571536),-73.9119178368163,40.7675404571536,"['25-15 Steinway St', 'Astoria, NY 11103']",Astoria,NY,11103.0,1.0,4.0,60,0,0,0,0,halal
53,uuix2xNPXt4nX1w4ZCxMcA,The Halal Guys,the-halal-guys-teterboro-2,Halal,"[{'alias': 'halal', 'title': 'Halal'}, {'alias': 'mideastern', 'title': 'Middle Eastern'}, {'alias': 'mediterranean', 'title': 'Mediterranean'}]",POINT (-74.06173299999998 40.86094600000001),-74.06173299999998,40.86094600000001,"['4 Teterboro Landing Dr', 'Teterboro, NJ 07608']",Teterboro,NJ,7608.0,1.0,3.0,180,0,1,0,0,halal
54,DxwjeLqKJJ8ME225KtdN3A,Basmala Halal Food,basmala-halal-food-new-york,Halal,"[{'alias': 'foodtrucks', 'title': 'Food Trucks'}, {'alias': 'halal', 'title': 'Halal'}]",POINT (-73.97168334780329 40.7946117104402),-73.97168334780329,40.7946117104402,"['NE Corner of Broadway & W 96th St', 'New York, NY 10025']",New York,NY,10025.0,1.0,5.0,3,0,0,0,0,halal
55,lMyJ9lrwRddpsOR_WeMSww,Gypsy Grill,gypsy-grill-jersey-city,Halal,"[{'alias': 'mideastern', 'title': 'Middle Eastern'}, {'alias': 'halal', 'title': 'Halal'}, {'alias': 'kebab', 'title': 'Kebab'}]",POINT (-74.04575600000003 40.721423),-74.04575600000003,40.721423,"['187 Newark Ave', 'Jersey City, NJ 07302']",Jersey City,NJ,7302.0,1.0,4.0,407,0,1,1,0,halal
56,oWFtHDApIwjdJKqjRbGh1g,Halal On Wheels,halal-on-wheels-uniondale,Halal,"[{'alias': 'foodtrucks', 'title': 'Food Trucks'}, {'alias': 'halal', 'title': 'Halal'}]",POINT (-73.6056162 40.7179833),-73.6056162,40.7179833,"['101 Oak St', 'Uniondale, NY 11553']",Uniondale,NY,11553.0,1.0,4.5,23,0,1,1,0,halal
57,l_yDyxEobV6OzxdRzDfN9w,Shah's Halal Cart,shahs-halal-cart-briarwood,Halal,"[{'alias': 'halal', 'title': 'Halal'}, {'alias': 'foodstands', 'title': 'Food Stands'}]",POINT (-73.8191393098427 40.709297419205),-73.8191393098427,40.709297419205,"['Queens Blvd And Main St', 'Briarwood, NY 11435']",Briarwood,NY,11435.0,1.0,4.5,31,0,0,0,0,halal
58,LaBJkwwC1lrYtooJQkvh-A,Al Nour,al-nour-woodside,Halal,"[{'alias': 'halal', 'title': 'Halal'}, {'alias': 'chinese', 'title': 'Chinese'}, {'alias': 'indpak', 'title': 'Indian'}]",POINT (-73.9001368 40.7461139),-73.9001368,40.7461139,"['39-04 64th St', 'Woodside, NY 11377']",Woodside,NY,11377.0,1.0,4.0,15,0,1,1,0,halal
59,09HKOSJyoRY3AJsRJvhtZg,Halal Food Cart,halal-food-cart-new-york-12,Halal,"[{'alias': 'streetvendors', 'title': 'Street Vendors'}, {'alias': 'halal', 'title': 'Halal'}]",POINT (-73.96207 40.80513),-73.96207,40.80513,"['1095 Amsterdam Ave', 'SE Corner of 114th & Amsterdam', 'New York, NY 10025']",New York,NY,10025.0,1.0,4.0,1,0,0,0,0,halal
60,fEzgfxIbWXJYo9ttAYfjPQ,120th Street Halal Cart,120th-street-halal-cart-new-york,Halal,"[{'alias': 'halal', 'title': 'Halal'}]",POINT (-73.94694999602221 40.80422000276261),-73.94694999602221,40.804220002762605,"['W 120th St', 'New York, NY 10001']",New York,NY,10001.0,1.0,4.0,4,0,0,0,0,halal
61,DA8S1ajUl3pNhr-7yJ3idg,King Cab Halal Food,king-cab-halal-food-new-york-2,Halal,"[{'alias': 'halal', 'title': 'Halal'}, {'alias': 'foodstands', 'title': 'Food Stands'}]",POINT (-74.00188399999998 40.75083729999999),-74.00188399999998,40.75083729999999,"['10th Ave & 28th St', 'New York, NY 10001']",New York,NY,10001.0,1.0,5.0,11,0,1,1,0,halal
62,_FzmXKTf6kexlcLp-8RkCA,Madina Halal Food,madina-halal-food-queens,Halal,"[{'alias': 'foodtrucks', 'title': 'Food Trucks'}, {'alias': 'halal', 'title': 'Halal'}]",POINT (-73.71447140000002 40.7362905),-73.71447140000002,40.7362905,"['253-11 Hillside Ave', 'Located next to the Pizza Hut Parking Lot', 'Queens, NY 11426']",Queens,NY,11426.0,1.0,4.0,60,0,0,0,0,halal
63,L3PwWn54PvHm5Rd4oUg7xw,B & D Halal Restaurant,b-and-d-halal-restaurant-new-york,Halal,"[{'alias': 'african', 'title': 'African'}, {'alias': 'halal', 'title': 'Halal'}]",POINT (-73.99239413939542 40.7477911583293),-73.99239413939542,40.7477911583293,"['163B W 29th St', 'New York, NY 10001']",New York,NY,10001.0,1.0,4.0,55,0,1,1,0,halal
64,61H9oV-8y6EMZdcKnQc-jA,Bakhter Halal Kababs,bakhter-halal-kababs-fresh-meadows,Halal,"[{'alias': 'afghani', 'title': 'Afghan'}, {'alias': 'halal', 'title': 'Halal'}, {'alias': 'sandwiches', 'title': 'Sandwiches'}]",POINT (-73.794737 40.733285),-73.794737,40.733285,"['68-16 Fresh Meadow Ln', 'Fresh Meadows, NY 11365']",Fresh Meadows,NY,11365.0,1.0,4.0,218,0,0,0,0,halal
65,BPyt7S9TdcR1u571iacg7g,The Kati Roll Company,the-kati-roll-company-new-york-5,Halal,"[{'alias': 'indpak', 'title': 'Indian'}, {'alias': 'halal', 'title': 'Halal'}]",POINT (-73.98458000000002 40.7528),-73.98458000000002,40.7528,"['49 W 39th St', 'New York, NY 10018']",New York,NY,10018.0,1.0,4.0,1282,0,1,1,0,halal
66,_hEfuDthNKUPSfIoGwobgw,Halal Cart,halal-cart-new-york-60,Halal,"[{'alias': 'foodtrucks', 'title': 'Food Trucks'}, {'alias': 'halal', 'title': 'Halal'}]",POINT (-73.9878488416535 40.71866288973921),-73.9878488416535,40.718662889739214,"['Delancey & Essex', 'New York, NY 10002']",New York,NY,10002.0,1.0,4.5,4,0,0,0,0,halal
67,3Wu7lGDEwuP-5OW1rdg0OQ,Sammy's Halal,sammys-halal-new-york-4,Halal,"[{'alias': 'halal', 'title': 'Halal'}, {'alias': 'mediterranean', 'title': 'Mediterranean'}, {'alias': 'mideastern', 'title': 'Middle Eastern'}]",POINT (-73.9853 40.75276),-73.9853,40.75276,"['70 W 39th St', 'New York, NY 10018']",New York,NY,10018.0,1.0,4.0,122,0,1,1,0,halal
68,zqGsKSl95p_vOQQJEniZkQ,Khan's Halal Food Cart,khans-halal-food-cart-new-york,Halal,"[{'alias': 'foodtrucks', 'title': 'Food Trucks'}, {'alias': 'halal', 'title': 'Halal'}]",POINT (-73.76936894020621 40.760280246623),-73.7693689402062,40.760280246623005,"['Bell Blvd & Northern Blvd Corner', 'New York, NY 11361']",New York,NY,11361.0,1.0,2.5,43,0,0,0,0,halal
69,N660q50xtKzMnDepQz3kfA,Soho Halal Guy,soho-halal-guy-new-york,Halal,"[{'alias': 'mideastern', 'title': 'Middle Eastern'}, {'alias': 'foodstands', 'title': 'Food Stands'}, {'alias': 'halal', 'title': 'Halal'}]",POINT (-73.99681 40.72542),-73.99681,40.72542,"['Broadway And W Houston', 'Soho', 'New York, NY 10012']",New York,NY,10012.0,1.0,4.0,54,0,0,0,0,halal
70,y4zAl2ZkJcW3IpbMYXcV6A,No Pork In My Fork Columbia Coffee & Grill,no-pork-in-my-fork-columbia-coffee-and-grill-new-york,Halal,"[{'alias': 'foodstands', 'title': 'Food Stands'}, {'alias': 'halal', 'title': 'Halal'}]",POINT (-73.9423441886902 40.8423002009537),-73.9423441886902,40.8423002009537,"['701 Ft Washington', 'New York, NY 10040']",New York,NY,10040.0,1.0,3.0,6,0,0,0,0,halal
71,PagJep8qUgUBAmq5A9lOUA,Halal Food Cart,halal-food-cart-new-york-3,Halal,"[{'alias': 'halal', 'title': 'Halal'}]",POINT (-74.01284 40.70242),-74.01284,40.70242,"['State St & Whitehall St', 'New York, NY 10004']",New York,NY,10004.0,1.0,4.5,11,0,0,0,0,halal
72,IuYN46e7DbCq9EjCvpqaZw,NYC Platters,nyc-platters-teaneck-2,Halal,"[{'alias': 'mediterranean', 'title': 'Mediterranean'}, {'alias': 'juicebars', 'title': 'Juice Bars & Smoothies'}, {'alias': 'halal', 'title': 'Halal'}]",POINT (-74.0204602 40.8760615),-74.0204602,40.8760615,"['378 Queen Anne Rd', 'Teaneck, NJ 07666']",Teaneck,NJ,7666.0,1.0,3.0,41,0,1,1,0,halal
73,fKsGFEKMD0e39B7SW-G8xw,Fahima Halal,fahima-halal-manhattan,Halal,"[{'alias': 'halal', 'title': 'Halal'}, {'alias': 'foodstands', 'title': 'Food Stands'}]",POINT (-73.97214 40.75394),-73.97214,40.75394,"['Corner Of 47th And 3rd', 'Manhattan, NY 10036']",Manhattan,NY,10036.0,1.0,4.5,8,0,0,0,0,halal
74,Ks7AlGEQfwwTYLib8uz6Mw,Harmony Istanbul Grill,harmony-istanbul-grill-new-york,Halal,"[{'alias': 'turkish', 'title': 'Turkish'}, {'alias': 'mediterranean', 'title': 'Mediterranean'}, {'alias': 'halal', 'title': 'Halal'}]",POINT (-73.99424999999999 40.74989),-73.99425,40.74989,"['252 W 31 St', 'New York, NY 10001']",New York,NY,10001.0,1.0,3.5,34,0,1,1,0,halal
75,7hgygLzjMf3YQE6oL1E3Aw,Shahi Biryani & Grill,shahi-biryani-and-grill-new-york,Halal,"[{'alias': 'indpak', 'title': 'Indian'}, {'alias': 'pakistani', 'title': 'Pakistani'}, {'alias': 'halal', 'title': 'Halal'}]",POINT (-73.96104 40.80119000000001),-73.96104,40.80119000000001,"['71 W 109th St', 'New York, NY 10025']",New York,NY,10025.0,1.0,3.5,66,0,1,1,0,halal
76,bzWazLmV5qG4mX8kFjyobw,Sahara Halal Food Cart,sahara-halal-food-cart-forest-hills,Halal,"[{'alias': 'halal', 'title': 'Halal'}]",POINT (-73.84416 40.72044),-73.84416,40.72044,"['107-16 71st Ave', 'Forest Hills, NY 11375']",Forest Hills,NY,11375.0,1.0,3.5,57,0,0,0,0,halal
77,GVaTZnN7a-DkrK57l7BbGw,Boishakhi Restaurant,boishakhi-restaurant-astoria-2,Halal,"[{'alias': 'indpak', 'title': 'Indian'}, {'alias': 'bangladeshi', 'title': 'Bangladeshi'}, {'alias': 'halal', 'title': 'Halal'}]",POINT (-73.9310011267662 40.75695488766871),-73.9310011267662,40.75695488766871,"['2914 36th Ave', 'Astoria, NY 11106']",Astoria,NY,11106.0,1.0,4.5,41,0,1,1,0,halal
78,UwOZR8MwRgc8l_CddxUWaA,Halal Food Truck,halal-food-truck-new-york-3,Halal,"[{'alias': 'halal', 'title': 'Halal'}, {'alias': 'foodtrucks', 'title': 'Food Trucks'}]",POINT (-73.98401 40.72938),-73.98401,40.72938,"['11th St & 1st Ave', 'New York, NY 10009']",New York,NY,10009.0,1.0,4.0,24,0,0,0,0,halal
79,_JTwbGD4TZK-6IpDeLInNw,Just Combo,just-combo-astoria-22,Halal,"[{'alias': 'pizza', 'title': 'Pizza'}, {'alias': 'halal', 'title': 'Halal'}]",POINT (-73.91450999999998 40.78188),-73.91450999999998,40.78188,"['21-01 21st St', 'Astoria, NY 11105']",Astoria,NY,11105.0,1.0,3.5,38,0,1,1,0,halal
80,iVKkoNy1NX44EIxddzyhmg,Sahara Grill & Pita,sahara-grill-and-pita-union-city-3,Halal,"[{'alias': 'halal', 'title': 'Halal'}, {'alias': 'mideastern', 'title': 'Middle Eastern'}, {'alias': 'bbq', 'title': 'Barbeque'}]",POINT (-74.03150629999998 40.7778959),-74.03150629999998,40.7778959,"['3812 Bergen Turnpike', 'Union City, NJ 07087']",Union City,NJ,7087.0,1.0,4.0,21,0,1,1,0,halal
81,c8K0wzVqlXqjUmgeZzp5zg,York Halal Grill,york-halal-grill-new-york,Halal,"[{'alias': 'halal', 'title': 'Halal'}]",POINT (-73.95423700000001 40.7661608),-73.954237,40.7661608,"['East 71st St York Ave', 'New York, NY 10021']",New York,NY,10021.0,1.0,4.0,4,0,0,0,0,halal
82,JtmzTnEDpS03tMytXOPUQw,NYC Falafel,nyc-falafel-new-york-2,Halal,"[{'alias': 'halal', 'title': 'Halal'}, {'alias': 'falafel', 'title': 'Falafel'}, {'alias': 'breakfast_brunch', 'title': 'Breakfast & Brunch'}]",POINT (-73.98903004825119 40.7225149191837),-73.9890300482512,40.7225149191837,"['201 Allen St', 'New York, NY 10002']",New York,NY,10002.0,1.0,4.0,27,0,1,1,0,halal
83,Vr1pzay0NAWVRTfF-WZYqA,Mushin's Halal Food,mushins-halal-food-floral-park,Halal,"[{'alias': 'foodtrucks', 'title': 'Food Trucks'}, {'alias': 'halal', 'title': 'Halal'}]",POINT (-73.71274320000001 40.7366577),-73.7127432,40.7366577,"['Little Neck Pkwy', 'Floral Park, NY 11004']",Floral Park,NY,11004.0,1.0,4.5,8,0,0,0,0,halal
84,RQic4NVDNhCwJRCK-Rgp0w,Halal Kitchen,halal-kitchen-maspeth,Halal,"[{'alias': 'chinese', 'title': 'Chinese'}, {'alias': 'halal', 'title': 'Halal'}]",POINT (-73.891651 40.727802),-73.891651,40.727802,"['7112 Grand Ave', 'Maspeth, NY 11378']",Maspeth,NY,11378.0,1.0,3.5,34,0,1,1,0,halal
85,bDF9ERYmvK9E8QYa-NCrbA,Halal Cart,halal-cart-manhattan-10,Halal,"[{'alias': 'halal', 'title': 'Halal'}]",POINT (-73.97492 40.75009),-73.97492,40.75009,"['41ST And 3rd Ave', 'Manhattan, NY 10017']",Manhattan,NY,10017.0,1.0,4.5,5,0,0,0,0,halal
86,z77FAZgre8hzlWP4DeYEzA,New Texas Fried Chicken & Pizza,new-texas-fried-chicken-and-pizza-jackson-heights,Halal,"[{'alias': 'pizza', 'title': 'Pizza'}, {'alias': 'halal', 'title': 'Halal'}, {'alias': 'burgers', 'title': 'Burgers'}]",POINT (-73.89842800000002 40.749793),-73.89842800000002,40.749793,"['64-01 Broadway', 'Jackson Heights, NY 11377']",Jackson Heights,NY,11377.0,1.0,3.5,23,0,1,1,0,halal
87,jKCSGAMyS0KIcS-vKpEuaA,Sammy's Halal Food,sammys-halal-food-new-york,Halal,"[{'alias': 'foodstands', 'title': 'Food Stands'}, {'alias': 'mideastern', 'title': 'Middle Eastern'}, {'alias': 'halal', 'title': 'Halal'}]",POINT (-73.99540999999998 40.72898),-73.99540999999998,40.72898,"['NE Corner 6th Ave W 4th St', 'New York, NY 10012']",New York,NY,10012.0,1.0,4.0,96,0,1,0,0,halal
88,AY6neU_b3YthOWsWsADRaQ,Eat Real Halal,eat-real-halal-new-york,Halal,"[{'alias': 'streetvendors', 'title': 'Street Vendors'}, {'alias': 'halal', 'title': 'Halal'}, {'alias': 'foodstands', 'title': 'Food Stands'}]",POINT (-73.98874029999998 40.7452961),-73.98874029999998,40.7452961,"['28TH St And Broadway', 'New York, NY 10001']",New York,NY,10001.0,1.0,4.5,5,0,0,0,0,halal
89,l2mIxUN1Tv_hsxQS7xxrgQ,York and 70th Halal Cart,york-and-70th-halal-cart-new-york,Halal,"[{'alias': 'halal', 'title': 'Halal'}, {'alias': 'foodstands', 'title': 'Food Stands'}]",POINT (-73.9546967 40.7655487),-73.9546967,40.7655487,"['70TH And York Ave', 'New York, NY 10021']",New York,NY,10021.0,1.0,4.0,8,0,0,0,0,halal
90,8kLi4eFXbZgGPzoxEJXMvw,Halal Cart,halal-cart-manhattan-16,Halal,"[{'alias': 'foodstands', 'title': 'Food Stands'}, {'alias': 'halal', 'title': 'Halal'}]",POINT (-73.9898 40.75722),-73.9898,40.75722,"['42th St & 8th Ave', 'Manhattan, NY 10036']",Manhattan,NY,10036.0,1.0,4.0,8,0,0,0,0,halal
91,z9Ha8FUrN4jnJhnEFNrYUg,Madina Halal Chinese Restaurant,madina-halal-chinese-restaurant-woodside,Halal,"[{'alias': 'halal', 'title': 'Halal'}, {'alias': 'chinese', 'title': 'Chinese'}]",POINT (-73.89848000000001 40.75011),-73.89848,40.75011,"['64-02 35th Ave', 'Woodside, NY 11377']",Woodside,NY,11377.0,1.0,3.5,12,0,1,1,0,halal
92,Xkob8TCzVGEFkYrd69E8lA,Halal Food,halal-food-new-york-9,Halal,"[{'alias': 'halal', 'title': 'Halal'}, {'alias': 'streetvendors', 'title': 'Street Vendors'}]",POINT (-73.99503308579671 40.7250776763191),-73.9950330857967,40.7250776763191,"['95 East Houston St', 'New York, NY 10012']",New York,NY,10012.0,1.0,4.5,6,0,0,0,0,halal
93,MtVE-RrkYegLJtRueSOqhA,Rafiqi's Delicious Food,rafiqis-delicious-food-new-york-2,Halal,"[{'alias': 'halal', 'title': 'Halal'}, {'alias': 'foodtrucks', 'title': 'Food Trucks'}]",POINT (-73.9799324659033 40.7547903390678),-73.9799324659033,40.754790339067796,"['44TH St And 5th Ave', 'New York, NY 10036']",New York,NY,10036.0,1.0,4.0,59,0,0,0,0,halal
94,4fQuriJ0mFzzG6RE1cRV5A,Halal Kitchen,halal-kitchen-sunnyside,Halal,"[{'alias': 'chinese', 'title': 'Chinese'}, {'alias': 'halal', 'title': 'Halal'}]",POINT (-73.92241 40.74051),-73.92241,40.74051,"['4214 Greenpoint Ave', 'Sunnyside, NY 11104']",Sunnyside,NY,11104.0,1.0,3.5,28,0,1,1,0,halal
95,k3OdnAy1O5IoCKeQ9_F-LQ,Puran Dhaka,puran-dhaka-jackson-heights-4,Halal,"[{'alias': 'halal', 'title': 'Halal'}, {'alias': 'bangladeshi', 'title': 'Bangladeshi'}, {'alias': 'foodtrucks', 'title': 'Food Trucks'}]",POINT (-73.89265977697809 40.7484519134489),-73.89265977697809,40.748451913448896,"['37-08 73rd St', 'Jackson heights, NY 11377']",Jackson heights,NY,11377.0,1.0,4.0,9,0,0,0,0,halal
96,maZVyQ0jQ24MeaP9-72XxQ,Jerusalem Pita House,jerusalem-pita-house-astoria-2,Halal,"[{'alias': 'mideastern', 'title': 'Middle Eastern'}, {'alias': 'mediterranean', 'title': 'Mediterranean'}, {'alias': 'halal', 'title': 'Halal'}]",POINT (-73.92485011369621 40.7685714760402),-73.92485011369621,40.7685714760402,"['25-15 30th Ave', 'Astoria, NY 11102']",Astoria,NY,11102.0,1.0,4.0,248,0,1,1,0,halal
97,lp6FBKJiHj59GmDb338rFg,Kabul Halal Food,kabul-halal-food-new-york,Halal,"[{'alias': 'halal', 'title': 'Halal'}, {'alias': 'foodstands', 'title': 'Food Stands'}]",POINT (-73.97190999999999 40.75712),-73.97191,40.75712,"['51st St & Lexington Ave', 'New York, NY 10022']",New York,NY,10022.0,1.0,4.0,5,0,0,0,0,halal
98,zYQc1sfeE_q7MARQkTafkg,Halal Cart,halal-cart-manhattan-3,Halal,"[{'alias': 'halal', 'title': 'Halal'}, {'alias': 'foodstands', 'title': 'Food Stands'}]",POINT (-73.94542 40.80775),-73.94542,40.80775,"['Lenox Avenue And 125th St', 'Manhattan, NY 10027']",Manhattan,NY,10027.0,1.0,3.5,3,0,0,0,0,halal
99,IPObt34MFs_Icr83NE7RFQ,Indo Pak Halal Restaurant,indo-pak-halal-restaurant-new-york,Halal,"[{'alias': 'indpak', 'title': 'Indian'}, {'alias': 'pakistani', 'title': 'Pakistani'}, {'alias': 'halal', 'title': 'Halal'}]",POINT (-73.94031643867491 40.79347367020721),-73.94031643867491,40.79347367020721,"['2173 2nd Ave', 'New York, NY 10029']",New York,NY,10029.0,1.0,3.0,39,0,1,1,0,halal
100,TS1eYydoWdk9HwOUXhAgXg,Hoda Halal Cart,hoda-halal-cart-manhattan,Halal,"[{'alias': 'halal', 'title': 'Halal'}, {'alias': 'foodstands', 'title': 'Food Stands'}]",POINT (-73.96108000000002 40.80683),-73.96108000000002,40.80683,"['116th St & Amsterdam Ave', 'Manhattan, NY 10027']",Manhattan,NY,10027.0,1.0,3.0,3,0,0,0,0,halal
101,8VTT6HpYQcQNFLl4zujqPQ,Adham's Halal Food,adhams-halal-food-manhattan,Halal,"[{'alias': 'halal', 'title': 'Halal'}]",POINT (-73.99157 40.75226),-73.99157,40.75226,"['W 35th St', 'Manhattan, NY']",Manhattan,NY,,1.0,3.5,6,0,0,0,0,halal
102,5hUj1m67tJZsAUy3h4MjUg,St. John's Halal Cart,st-johns-halal-cart-jamaica,Halal,"[{'alias': 'halal', 'title': 'Halal'}, {'alias': 'streetvendors', 'title': 'Street Vendors'}]",POINT (-73.79513108826821 40.724744335851),-73.7951310882682,40.724744335851,"['Union Tpke & 174th St', 'Jamaica, NY 11432']",Jamaica,NY,11432.0,1.0,4.0,19,0,0,0,0,halal
103,46S5JQbOQWCOfwdF2YFQPQ,LI's Halal Food,lis-halal-food-elmont,Halal,"[{'alias': 'halal', 'title': 'Halal'}, {'alias': 'foodtrucks', 'title': 'Food Trucks'}, {'alias': 'salad', 'title': 'Salad'}]",POINT (-73.71988 40.68909),-73.71988,40.68909,"['2060 Linden Blvd', 'Elmont, NY 11003']",Elmont,NY,11003.0,1.0,4.5,14,0,0,0,0,halal
104,ZiIr9QWrETxrVkP6NdwdXQ,Nisars Halal Cart,nisars-halal-cart-forest-hills-2,Halal,"[{'alias': 'halal', 'title': 'Halal'}]",POINT (-73.8495941 40.7333145),-73.8495941,40.7333145,"['63-75 108th St', 'Forest Hills, NY 11366']",Forest Hills,NY,11366.0,1.0,4.5,9,0,0,0,0,halal
105,CZZkMp7PST4VHBnaHCUoHw,Express Power Lunch,express-power-lunch-new-york,Halal,"[{'alias': 'foodstands', 'title': 'Food Stands'}, {'alias': 'halal', 'title': 'Halal'}]",POINT (-74.0079290068539 40.7055394298736),-74.0079290068539,40.7055394298736,"['Wall St & Pearl St', 'New York, NY 10041']",New York,NY,10041.0,1.0,4.0,39,0,0,0,0,halal
106,FpCfpjJcqPMPEWjn0z7WLw,Sahara Grill & Pita Truck,sahara-grill-and-pita-truck-jersey-city,Halal,"[{'alias': 'halal', 'title': 'Halal'}, {'alias': 'foodtrucks', 'title': 'Food Trucks'}, {'alias': 'falafel', 'title': 'Falafel'}]",POINT (-74.04212029999999 40.719129),-74.0421203,40.719129,"['95 Christopher Columbus Dr', 'Jersey City, NJ 07302']",Jersey City,NJ,7302.0,1.0,3.5,26,0,0,0,0,halal
107,PF9sOfpRWjQGviligM-lww,City Spice Cafe,city-spice-cafe-new-york,Halal,"[{'alias': 'indpak', 'title': 'Indian'}, {'alias': 'halal', 'title': 'Halal'}]",POINT (-73.98135000000001 40.74068),-73.98135,40.74068,"['203 E 26th St', 'New York, NY 10010']",New York,NY,10010.0,1.0,4.0,5,0,1,1,0,halal
108,9XAQem6beJ8zfhhU9F9RJA,Halal Cart,halal-cart-new-york-23,Halal,"[{'alias': 'halal', 'title': 'Halal'}]",POINT (-73.985221303638 40.7686014032081),-73.985221303638,40.7686014032081,"['9th Ave & 58th St', 'New York, NY 10019']",New York,NY,10019.0,1.0,4.0,9,0,0,0,0,halal
109,7cISftD8dqwvCk0ZbuSXSA,Cluck U Chicken,cluck-u-chicken-hoboken,Halal,"[{'alias': 'chicken_wings', 'title': 'Chicken Wings'}, {'alias': 'hotdogs', 'title': 'Fast Food'}, {'alias': 'halal', 'title': 'Halal'}]",POINT (-74.0311 40.73801),-74.0311,40.73801,"['112 Washington St', 'Hoboken, NJ 07030']",Hoboken,NJ,7030.0,1.0,3.0,144,0,1,1,0,halal
110,ABn6X5MU4HZyfRFQaIklZw,XPL Halal Truck,xpl-halal-truck-new-york,Halal,"[{'alias': 'halal', 'title': 'Halal'}]",POINT (-73.9698499 40.75709000000001),-73.9698499,40.75709000000001,"['E 52nd St And 3rd Ave', 'New York, NY 10022']",New York,NY,10022.0,1.0,4.0,18,0,0,0,0,halal
111,vwgLem_9f5zJUXI_c0gM8w,Halal Cart,halal-cart-new-york-71,Halal,"[{'alias': 'streetvendors', 'title': 'Street Vendors'}, {'alias': 'halal', 'title': 'Halal'}]",POINT (-73.99491156042551 40.7251055040693),-73.9949115604255,40.7251055040693,"['315 Lafayette St', 'New York, NY 10012']",New York,NY,10012.0,1.0,4.5,6,0,0,0,0,halal
112,1Tju7_3JhYLDb2cihQPpqA,God Bless Deli,god-bless-deli-brooklyn-3,Halal,"[{'alias': 'convenience', 'title': 'Convenience Stores'}, {'alias': 'delis', 'title': 'Delis'}, {'alias': 'halal', 'title': 'Halal'}]",POINT (-73.95315500000002 40.72837),-73.95315500000002,40.72837,"['818 Manhattan Ave', 'Brooklyn, NY 11222']",Brooklyn,NY,11222.0,1.0,4.0,78,0,1,1,0,halal
113,wFYysetj13FpP-ILbNUIow,US Fried Chicken,us-fried-chicken-jersey-city-2,Halal,"[{'alias': 'hotdogs', 'title': 'Fast Food'}, {'alias': 'halal', 'title': 'Halal'}, {'alias': 'chicken_wings', 'title': 'Chicken Wings'}]",POINT (-74.0462644456005 40.75642700642009),-74.0462644456005,40.75642700642009,"['3694 John F Kennedy Blvd', 'Jersey City, NJ 07307']",Jersey City,NJ,7307.0,1.0,4.0,4,0,0,0,0,halal
114,yh69_Nh1TLAkizoWC9Htow,Lunch Truck - Halal Cart,lunch-truck-halal-cart-new-york,Halal,"[{'alias': 'halal', 'title': 'Halal'}, {'alias': 'foodstands', 'title': 'Food Stands'}]",POINT (-74.0074729174376 40.7104121893644),-74.0074729174376,40.7104121893644,"['100 Nassau St', 'New York, NY 10038']",New York,NY,10038.0,1.0,4.5,5,0,0,0,0,halal
115,VWbnDSJq-TYIkME-Dzl73A,40th and 7th Halal Cart,40th-and-7th-halal-cart-new-york,Halal,"[{'alias': 'foodstands', 'title': 'Food Stands'}, {'alias': 'halal', 'title': 'Halal'}]",POINT (-73.98787653822708 40.7547493481888),-73.98787653822708,40.754749348188795,"['40TH St At 7th Ave', 'New York, NY 10018']",New York,NY,10018.0,1.0,4.0,10,0,0,0,0,halal
116,TlOutlcLAu3AkStvcQl2-Q,Halal Cart,halal-cart-manhattan-4,Halal,"[{'alias': 'halal', 'title': 'Halal'}, {'alias': 'foodstands', 'title': 'Food Stands'}]",POINT (-73.9619699 40.77075),-73.9619699,40.77075,"['E 68th St Between Park Ave And Lexington Ave', 'Manhattan, NY 10021']",Manhattan,NY,10021.0,1.0,3.0,11,0,0,0,0,halal
117,5wras3E8oyxKzCXfHfW2eg,Rafiqi's,rafiqis-new-york-6,Halal,"[{'alias': 'halal', 'title': 'Halal'}, {'alias': 'foodstands', 'title': 'Food Stands'}]",POINT (-73.9883561 40.7475435),-73.9883561,40.7475435,"['31st St & Broadway', 'New York, NY 10001']",New York,NY,10001.0,1.0,4.0,19,0,0,0,0,halal
118,HQVM972eVta9ufVz7uh_eg,Food Time Halal,food-time-halal-elmhurst,Halal,"[{'alias': 'streetvendors', 'title': 'Street Vendors'}, {'alias': 'halal', 'title': 'Halal'}, {'alias': 'foodstands', 'title': 'Food Stands'}]",POINT (-73.88514120000001 40.7440058),-73.8851412,40.7440058,"['Broadway & Baxter Ave', 'Elmhurst, NY 11373']",Elmhurst,NY,11373.0,1.0,4.0,5,0,0,0,0,halal
119,2UcFyzsiqtQ0fwekyXh9Vg,Queens Center Halal Carts,queens-center-halal-carts-elmhurst,Halal,"[{'alias': 'halal', 'title': 'Halal'}, {'alias': 'foodstands', 'title': 'Food Stands'}]",POINT (-73.8701179324985 40.73367279929779),-73.8701179324985,40.73367279929779,"['59th Ave & Queens Blvd', 'Queens Center', 'Elmhurst, NY 11373']",Elmhurst,NY,11373.0,1.0,3.5,6,0,0,0,0,halal
120,ajNuR2OBfAX4X6tFNs6L_Q,Shah's Halal Cart,shahs-halal-cart-flushing,Halal,"[{'alias': 'halal', 'title': 'Halal'}, {'alias': 'foodstands', 'title': 'Food Stands'}]",POINT (-73.81497 40.73841),-73.81497,40.73841,"['6530 Kissena Blvd & Horace Harding Expy', 'Flushing, NY 11367']",Flushing,NY,11367.0,1.0,3.5,21,0,0,0,0,halal
121,udpO-cs-loodl9nZ0LZLZA,Shah's Halal Cart,shahs-halal-cart-jamaica,Halal,"[{'alias': 'halal', 'title': 'Halal'}]",POINT (-73.79291900117509 40.7109555064904),-73.7929190011751,40.7109555064904,"['Hillside Ave & Homelawn St', 'Jamaica, NY 11432']",Jamaica,NY,11432.0,1.0,3.0,24,0,0,0,0,halal
122,HwvG1FXbVunyHOZCYZSblA,Geo Halal Meat Cash & Carry,geo-halal-meat-cash-and-carry-jersey-city,Halal,"[{'alias': 'halal', 'title': 'Halal'}, {'alias': 'pakistani', 'title': 'Pakistani'}]",POINT (-74.0709762573242 40.7355461120605),-74.0709762573242,40.7355461120605,"['1059 W Side Ave', 'Jersey City, NJ 07306']",Jersey City,NJ,7306.0,1.0,4.5,3,0,0,0,0,halal
123,H8TAPuQZa_pFaitbRnpY8Q,Amir's Grill,amirs-grill-new-york,Halal,"[{'alias': 'mideastern', 'title': 'Middle Eastern'}, {'alias': 'fooddeliveryservices', 'title': 'Food Delivery Services'}, {'alias': 'halal', 'title': 'Halal'}]",POINT (-73.96526340000001 40.806572),-73.96526340000001,40.806572,"['2911 Broadway', 'New York, NY 10025']",New York,NY,10025.0,1.0,3.0,171,0,1,1,0,halal
124,Q3avSeGXZZIAAnjUz7IYtQ,Mr Khan's Best Halal Food,mr-khans-best-halal-food-new-york,Halal,"[{'alias': 'halal', 'title': 'Halal'}, {'alias': 'foodstands', 'title': 'Food Stands'}]",POINT (-73.9827102366374 40.7567683358682),-73.9827102366374,40.7567683358682,"['45 St & 6th Ave - Northeast Corner', 'New York, NY 10036']",New York,NY,10036.0,1.0,4.0,9,0,0,0,0,halal
125,U3hvDT5CtQrnpg2zhJg3mQ,Kashmir 9 - Cuisine of Pakistan,kashmir-9-cuisine-of-pakistan-new-york,Halal,"[{'alias': 'halal', 'title': 'Halal'}, {'alias': 'pakistani', 'title': 'Pakistani'}]",POINT (-73.99485111236571 40.7549782340085),-73.99485111236571,40.7549782340085,"['478 9th Ave', 'New York, NY 10018']",New York,NY,10018.0,1.0,3.5,148,0,1,1,0,halal
126,2K9dTgbmn3vS9YyFmun1sA,Halal Cart,halal-cart-new-york-67,Halal,"[{'alias': 'foodtrucks', 'title': 'Food Trucks'}, {'alias': 'halal', 'title': 'Halal'}, {'alias': 'foodstands', 'title': 'Food Stands'}]",POINT (-73.9954920728092 40.7594583435888),-73.9954920728092,40.7594583435888,"['570 10th Ave', 'New York, NY 10036']",New York,NY,10036.0,1.0,4.0,1,0,0,0,0,halal
127,DFYkFGlUonotVc-5GOj8Ew,E&G Pyramid Halal Cart,e-and-g-pyramid-halal-cart-new-york,Halal,"[{'alias': 'halal', 'title': 'Halal'}]",POINT (-73.99209990000001 40.74385),-73.99209990000001,40.74385,"['Sixth Ave', 'New York, NY']",New York,NY,,1.0,4.5,2,0,0,0,0,halal
128,CWEHjt5yU_pE0QBU_17l4A,Halal Cart - 86th and 3rd,halal-cart-86th-and-3rd-new-york,Halal,"[{'alias': 'foodstands', 'title': 'Food Stands'}, {'alias': 'halal', 'title': 'Halal'}]",POINT (-73.95398 40.77882),-73.95398,40.77882,"['Corner Of 86th And 3rd', 'New York, NY 10028']",New York,NY,10028.0,1.0,3.0,6,0,0,0,0,halal
129,kcBznL2XREoTnnZbo1GbeQ,The Halal Guys,the-halal-guys-long-island-city-6,Halal,"[{'alias': 'foodstands', 'title': 'Food Stands'}, {'alias': 'halal', 'title': 'Halal'}, {'alias': 'mideastern', 'title': 'Middle Eastern'}]",POINT (-73.9337797560277 40.7447090404919),-73.9337797560277,40.7447090404919,"['31-10 Thomson Ave', 'At Van Dam', 'Long Island City, NY 11101']",Long Island City,NY,11101.0,1.0,3.0,19,0,0,0,0,halal
130,nqGp208f_wdqoLfNQgn_Ig,Haat Bazaar,haat-bazaar-jackson-heights,Halal,"[{'alias': 'bangladeshi', 'title': 'Bangladeshi'}, {'alias': 'halal', 'title': 'Halal'}]",POINT (-73.892382 40.748491),-73.892382,40.748491,"['3711 73rd St', 'Ste 73', 'Jackson Heights, NY 11372']",Jackson Heights,NY,11372.0,1.0,4.0,85,0,0,0,0,halal
131,_zkCNfVFNtzHkWFdcaHkMQ,Medina Halal Food,medina-halal-food-queens,Halal,"[{'alias': 'streetvendors', 'title': 'Street Vendors'}, {'alias': 'foodstands', 'title': 'Food Stands'}, {'alias': 'halal', 'title': 'Halal'}]",POINT (-73.83435174822809 40.7690926346372),-73.83435174822809,40.769092634637204,"['31-01 Stratton St', 'Queens, NY 11354']",Queens,NY,11354.0,1.0,2.0,2,0,0,0,0,halal
132,kDZZYaK40iMyZgdLKwoWsQ,Halal Cart,halal-cart-manhattan-8,Halal,"[{'alias': 'halal', 'title': 'Halal'}, {'alias': 'foodstands', 'title': 'Food Stands'}]",POINT (-74.0055221725612 40.72700854575879),-74.0055221725612,40.72700854575879,"['172 Varick St', 'Manhattan, NY 10013']",Manhattan,NY,10013.0,1.0,4.5,3,0,0,0,0,halal
133,24XpZ4ARfNh72Otf1WYuKw,Bellevue Halal Food Cart,bellevue-halal-food-cart-new-york,Halal,"[{'alias': 'halal', 'title': 'Halal'}, {'alias': 'foodstands', 'title': 'Food Stands'}]",POINT (-73.9762432918201 40.74002805460611),-73.9762432918201,40.74002805460611,"['1st Ave & E 28th St', 'New York, NY 10016']",New York,NY,10016.0,1.0,3.5,2,0,0,0,0,halal
134,WO1Vw9nLLtujH3kcNMRCUQ,Muhsins Halal Food,muhsins-halal-food-flushing,Halal,"[{'alias': 'foodtrucks', 'title': 'Food Trucks'}, {'alias': 'halal', 'title': 'Halal'}]",POINT (-73.7931699487451 40.7575707217608),-73.7931699487451,40.7575707217608,"['172-12 Northern Blvd', 'Flushing, NY 11358']",Flushing,NY,11358.0,1.0,3.0,9,0,0,0,0,halal
135,XRqZWOyCcb3obdpUtMXIXw,Continental Express Halal Food - The OTHER Cart on Beaver St,continental-express-halal-food-the-other-cart-on-beaver-st-new-york,Halal,"[{'alias': 'halal', 'title': 'Halal'}, {'alias': 'foodstands', 'title': 'Food Stands'}]",POINT (-74.01294663548471 40.7049733400345),-74.01294663548471,40.7049733400345,"['8 Beaver St', 'New York, NY 10004']",New York,NY,10004.0,1.0,3.0,11,0,0,0,0,halal
136,vS5WZNErrgWvHtiO3CTmqA,Sheezan Restaurant,sheezan-restaurant-new-york-3,Halal,"[{'alias': 'indpak', 'title': 'Indian'}, {'alias': 'pakistani', 'title': 'Pakistani'}, {'alias': 'halal', 'title': 'Halal'}]",POINT (-74.00717 40.71566),-74.00717,40.71566,"['183 Church St', 'New York, NY 10007']",New York,NY,10007.0,1.0,3.5,20,0,1,1,0,halal
137,-jSxoTeK6DXEqtEhlj2YFw,Faith's Halal Food,faiths-halal-food-manhattan,Halal,"[{'alias': 'halal', 'title': 'Halal'}, {'alias': 'foodstands', 'title': 'Food Stands'}]",POINT (-73.99008750915529 40.7533527777398),-73.99008750915529,40.7533527777398,"['7TH And 8th Ave', '33rd St', 'Manhattan, NY 10001']",Manhattan,NY,10001.0,1.0,4.0,4,0,0,0,0,halal
138,kB3QyyhHFVyhGgp35Rnuew,The Kati Roll Company,the-kati-roll-company-new-york,Halal,"[{'alias': 'indpak', 'title': 'Indian'}, {'alias': 'halal', 'title': 'Halal'}]",POINT (-74.00095999999998 40.7296),-74.00095999999998,40.7296,"['99 MacDougal St', 'New York, NY 10012']",New York,NY,10012.0,1.0,4.0,794,0,1,1,0,halal
139,4oXj1ibfudrp4BkHcMjyrQ,Uncle's Fried Chicken,uncles-fried-chicken-jamaica,Halal,"[{'alias': 'halal', 'title': 'Halal'}, {'alias': 'chicken_wings', 'title': 'Chicken Wings'}, {'alias': 'burgers', 'title': 'Burgers'}]",POINT (-73.79898829999998 40.7085304),-73.79898829999998,40.7085304,"['163-04 Hillside Ave', 'Jamaica, NY 11432']",Jamaica,NY,11432.0,1.0,3.5,21,0,0,0,0,halal
140,IZGmct19s3P8oZsHD8M62A,Bombay Deli Pizza & Tandoori Restaurant,bombay-deli-pizza-and-tandoori-restaurant-new-york,Halal,"[{'alias': 'indpak', 'title': 'Indian'}, {'alias': 'halal', 'title': 'Halal'}]",POINT (-73.9949488 40.7545768),-73.9949488,40.7545768,"['367 W 36th St', 'New York, NY 10018']",New York,NY,10018.0,1.0,4.0,17,0,0,0,0,halal
141,Yf4SjE9tfd1ASaT3xtwYzQ,Bombay Biryany Cart,bombay-biryany-cart-new-york,Halal,"[{'alias': 'indpak', 'title': 'Indian'}, {'alias': 'halal', 'title': 'Halal'}, {'alias': 'foodstands', 'title': 'Food Stands'}]",POINT (-74.0105903148651 40.70908039710221),-74.0105903148651,40.70908039710221,"['Broadway & Liberty St', 'New York, NY 10005']",New York,NY,10005.0,1.0,4.5,5,0,0,0,0,halal
142,LrUpHpYTsf8N6rPK5I6tqA,Halal Dynasty,halal-dynasty-jamaica,Halal,"[{'alias': 'chinese', 'title': 'Chinese'}, {'alias': 'halal', 'title': 'Halal'}]",POINT (-73.78919429576192 40.7122832327928),-73.78919429576192,40.7122832327928,"['17233A Hillside Ave', 'Jamaica, NY 11432']",Jamaica,NY,11432.0,1.0,3.0,33,0,1,1,0,halal
143,kbPDjFtRP-U5aNuKDYcUEA,Halal Food Cart,halal-food-cart-new-york-9,Halal,"[{'alias': 'halal', 'title': 'Halal'}, {'alias': 'foodtrucks', 'title': 'Food Trucks'}]",POINT (-74.01158306747671 40.7149321907469),-74.0115830674767,40.7149321907469,"['255 Greenwich St', 'New York, NY 10007']",New York,NY,10007.0,1.0,3.5,4,0,0,0,0,halal
144,dMc52l3ru6MtUssRv2sDVw,The Halal Guys,the-halal-guys-new-york-12,Halal,"[{'alias': 'halal', 'title': 'Halal'}, {'alias': 'mideastern', 'title': 'Middle Eastern'}, {'alias': 'foodstands', 'title': 'Food Stands'}]",POINT (-73.9819048 40.7629724),-73.9819048,40.7629724,"['W 53rd St 7th Ave', 'New York, NY 10019']",New York,NY,10019.0,1.0,3.5,54,0,0,0,0,halal
145,_1G1KPPSIM9ZWIu57f6eSA,Ruma & Shanta,ruma-and-shanta-new-york,Halal,"[{'alias': 'halal', 'title': 'Halal'}, {'alias': 'foodstands', 'title': 'Food Stands'}]",POINT (-74.00641999999998 40.71424),-74.00641999999998,40.71424,"['Between Pc Richards And Trader Joes', 'New York, NY']",New York,NY,,1.0,4.5,3,0,0,0,0,halal
146,Z4OF9kKSikiYZCx62_aq8A,Jerusalem Restaurant,jerusalem-restaurant-new-york,Halal,"[{'alias': 'mideastern', 'title': 'Middle Eastern'}, {'alias': 'mediterranean', 'title': 'Mediterranean'}, {'alias': 'halal', 'title': 'Halal'}]",POINT (-73.96852 40.7997299),-73.96852,40.7997299,"['2715 Broadway', 'New York, NY 10025']",New York,NY,10025.0,1.0,3.0,144,0,1,1,0,halal
147,lNifiDsIBKjwzVuarrJKvQ,Zak's Halal Cart,zaks-halal-cart-new-york,Halal,"[{'alias': 'halal', 'title': 'Halal'}, {'alias': 'foodstands', 'title': 'Food Stands'}, {'alias': 'mideastern', 'title': 'Middle Eastern'}]",POINT (-74.01011 40.70865),-74.01011,40.70865,"['140 Broadway', 'New York, NY 10005']",New York,NY,10005.0,1.0,4.0,15,0,0,0,0,halal
148,CgiJy1-KcgME2yRhucTKog,Halal Cart,halal-cart-new-york-18,Halal,"[{'alias': 'halal', 'title': 'Halal'}]",POINT (-73.97329999999999 40.76099),-73.9733,40.76099,"['55TH And Madison', 'New York, NY 10022']",New York,NY,10022.0,1.0,4.5,5,0,0,0,0,halal
149,onDHsXRAd88j4tmuAVpukg,New Bakhtar Afghan Halal Kabab,new-bakhtar-afghan-halal-kabab-richmond-hill,Halal,"[{'alias': 'halal', 'title': 'Halal'}, {'alias': 'afghani', 'title': 'Afghan'}, {'alias': 'mideastern', 'title': 'Middle Eastern'}]",POINT (-73.837478818585 40.6968292491408),-73.837478818585,40.6968292491408,"['110-23 Jamaica Ave', 'Richmond Hill, NY 11418']",Richmond Hill,NY,11418.0,1.0,3.0,49,0,1,1,0,halal
150,Gol6yMg-EYy2-unPykGXvg,Khyber Kabab Restaurant,khyber-kabab-restaurant-richmond-hill,Halal,"[{'alias': 'indpak', 'title': 'Indian'}, {'alias': 'halal', 'title': 'Halal'}, {'alias': 'pakistani', 'title': 'Pakistani'}]",POINT (-73.8359818 40.6977735),-73.8359818,40.6977735,"['11211 Jamaica Ave', 'Richmond Hill, NY 11418']",Richmond Hill,NY,11418.0,1.0,4.0,4,0,0,0,0,halal
151,Lt1I4JTYpivQlDckd4ZUcQ,Halal Cart,halal-cart-new-york-61,Halal,"[{'alias': 'halal', 'title': 'Halal'}, {'alias': 'foodstands', 'title': 'Food Stands'}]",POINT (-73.99347220000001 40.75219110000001),-73.99347220000001,40.75219110000001,"['34th St & 8th Ave', 'New York, NY 10001']",New York,NY,10001.0,1.0,3.5,6,0,0,0,0,halal
152,vnf1WSV7dTmOeOkIJ46hiw,Curry King,curry-king-new-york,Halal,"[{'alias': 'indpak', 'title': 'Indian'}, {'alias': 'halal', 'title': 'Halal'}, {'alias': 'pakistani', 'title': 'Pakistani'}]",POINT (-73.96298248404409 40.799566279368),-73.96298248404409,40.799566279368,"['942 Columbus Ave', 'New York, NY 10025']",New York,NY,10025.0,1.0,3.0,35,0,1,1,0,halal
153,V3mSoUHcuFQwDHBPLTSbdg,King Kabab,king-kabab-jamaica,Halal,"[{'alias': 'indpak', 'title': 'Indian'}, {'alias': 'halal', 'title': 'Halal'}, {'alias': 'pakistani', 'title': 'Pakistani'}]",POINT (-73.796104238621 40.70966233680221),-73.796104238621,40.70966233680221,"['167-09 Hillside Ave', 'Jamaica, NY 11432']",Jamaica,NY,11432.0,1.0,3.5,24,0,1,0,1,halal
154,8IBU9uYFKOx6z7mINNPrgw,Halal Food,halal-food-new-york-6,Halal,"[{'alias': 'foodstands', 'title': 'Food Stands'}, {'alias': 'halal', 'title': 'Halal'}]",POINT (-74.00714000000001 40.71455),-74.00714,40.71455,"['New York, NY']",New York,NY,,1.0,4.0,21,0,0,0,0,halal
155,X46eHtznwkEUIUWOwo2m6A,Halal Food Cart,halal-food-cart-kew-gardens,Halal,"[{'alias': 'halal', 'title': 'Halal'}]",POINT (-73.83079000000002 40.71416),-73.83079000000002,40.71416,"['Corner Of Union Tpke And Queens Blvd', 'Kew Gardens, NY 11415']",Kew Gardens,NY,11415.0,1.0,3.5,8,0,0,0,0,halal
156,DzELCroVTmQtYNEaij0x_A,Halal Cart,halal-cart-manhattan-2,Halal,"[{'alias': 'halal', 'title': 'Halal'}]",POINT (-73.97264 40.79331),-73.97264,40.79331,"['94th St & Broadway', 'Manhattan, NY 10025']",Manhattan,NY,10025.0,1.0,3.0,5,0,0,0,0,halal
157,w_4kEnanUloKJVDIJAUUyg,El-Rawsheh Cuisine,el-rawsheh-cuisine-astoria,Halal,"[{'alias': 'halal', 'title': 'Halal'}, {'alias': 'egyptian', 'title': 'Egyptian'}]",POINT (-73.91288759999998 40.7668419),-73.91288759999998,40.7668419,"['2548 Steinway St', 'Astoria, NY 11103']",Astoria,NY,11103.0,1.0,3.5,57,0,1,0,0,halal
158,gKDcAT2sS3i2f_ooZ4RpMw,Ahmed Halal Food,ahmed-halal-food-oakland-gardens,Halal,"[{'alias': 'streetvendors', 'title': 'Street Vendors'}, {'alias': 'halal', 'title': 'Halal'}]",POINT (-73.7497177124023 40.7511596679688),-73.7497177124023,40.7511596679688,"['221-4 Horace Harding Expy', 'Oakland Gardens, NY 11364']",Oakland Gardens,NY,11364.0,1.0,3.5,3,0,0,0,0,halal
159,KbCLZOKvPdNY7ptAg0kGxw,The Kati Roll Company,the-kati-roll-company-new-york-4,Halal,"[{'alias': 'indpak', 'title': 'Indian'}, {'alias': 'halal', 'title': 'Halal'}]",POINT (-73.96781444549559 40.7572680281001),-73.96781444549559,40.7572680281001,"['229 E 53rd St', 'New York, NY 10022']",New York,NY,10022.0,1.0,3.5,279,0,1,1,0,halal
160,NT6u630fORen9a6u1ZC--Q,Halal Cart 43rd St & 5th Ave,halal-cart-43rd-st-and-5th-ave-new-york,Halal,"[{'alias': 'halal', 'title': 'Halal'}, {'alias': 'food', 'title': 'Food'}]",POINT (-73.9804001 40.75415039999999),-73.9804001,40.75415039999999,"['43rd St & 5th Ave', 'New York, NY 10036']",New York,NY,10036.0,1.0,4.5,3,0,0,0,0,halal
161,Ae_PQ1plFVsCmu2QK5y0zw,Halal Brothers Chicken And Gyro,halal-brothers-chicken-and-gyro-flushing-4,Halal,"[{'alias': 'halal', 'title': 'Halal'}]",POINT (-73.81482270000002 40.75537979999999),-73.81482270000002,40.75537979999999,"['14712 45th Ave', 'Flushing, NY 11355']",Flushing,NY,11355.0,1.0,3.5,4,0,0,0,0,halal
162,zefr8ma1DWAZ4XxJH4Lxjw,A&O's Gyro Spot,a-and-os-gyro-spot-new-york,Halal,"[{'alias': 'halal', 'title': 'Halal'}, {'alias': 'afghani', 'title': 'Afghan'}, {'alias': 'foodstands', 'title': 'Food Stands'}]",POINT (-73.8213653564453 40.7512283325195),-73.8213653564453,40.751228332519496,"['136-1-136-27 Franklin Ave', 'New York, NY 11355']",New York,NY,11355.0,1.0,3.0,6,0,0,0,0,halal
163,qa8OUhoOiOmCYbAAQAj1cA,Madina Deli Shop,madina-deli-shop-new-york,Halal,"[{'alias': 'halal', 'title': 'Halal'}, {'alias': 'delis', 'title': 'Delis'}, {'alias': 'intlgrocery', 'title': 'International Grocery'}]",POINT (-73.98366999999998 40.72914),-73.98366999999998,40.72914,"['402 E 11th St', 'New York, NY 10009']",New York,NY,10009.0,1.0,4.5,2,0,0,0,0,halal
164,kYjrmqZRB2Q8nQ4SD4yqVg,Mia Zee Halal Cart,mia-zee-halal-cart-new-york,Halal,"[{'alias': 'halal', 'title': 'Halal'}, {'alias': 'foodstands', 'title': 'Food Stands'}]",POINT (-73.98774996399879 40.744059830904),-73.9877499639988,40.744059830904,"['27th St & 5th Ave', 'New York, NY 10001']",New York,NY,10001.0,1.0,3.5,6,0,0,0,0,halal
165,cJj8OPm8EPsxp5KKsG-vWw,Homemade Halal Cart,homemade-halal-cart-new-york,Halal,"[{'alias': 'mideastern', 'title': 'Middle Eastern'}, {'alias': 'foodstands', 'title': 'Food Stands'}, {'alias': 'halal', 'title': 'Halal'}]",POINT (-74.01307806372641 40.7049807161093),-74.01307806372641,40.7049807161093,"['4 Beaver St', 'New York, NY 10004']",New York,NY,10004.0,1.0,3.5,16,0,0,0,0,halal
166,bOShO058f7SGjfMsppcXyg,Sham's Halal Food,shams-halal-food-new-york-2,Halal,"[{'alias': 'halal', 'title': 'Halal'}, {'alias': 'foodtrucks', 'title': 'Food Trucks'}]",POINT (-73.8027725 40.7077103),-73.8027725,40.7077103,"['Hillside & Parsons Blvd', 'New York, NY 11432']",New York,NY,11432.0,1.0,2.5,3,0,0,0,0,halal
167,8YMplA3OLfE8uBSai6cF7A,Express Power Lunch,express-power-lunch-new-york-3,Halal,"[{'alias': 'foodstands', 'title': 'Food Stands'}, {'alias': 'halal', 'title': 'Halal'}]",POINT (-73.9747852555893 40.7558856007975),-73.9747852555893,40.7558856007975,"['48th St & Park Ave', 'New York, NY 10017']",New York,NY,10017.0,1.0,3.5,10,0,0,0,0,halal
168,eVZGBIWAmQxiTwVYA0pjWA,Little Gujrat Deli,little-gujrat-deli-new-york,Halal,"[{'alias': 'halal', 'title': 'Halal'}, {'alias': 'indpak', 'title': 'Indian'}]",POINT (-73.962936 40.799697),-73.962936,40.799697,"['946 Columbus Ave', 'New York, NY 10025']",New York,NY,10025.0,1.0,3.0,5,0,0,0,0,halal
169,AITyX0sF3E_6tqZTdgi2Uw,Abodonia Kebab,abodonia-kebab-new-york,Halal,"[{'alias': 'halal', 'title': 'Halal'}, {'alias': 'foodstands', 'title': 'Food Stands'}]",POINT (-73.91579 40.76427),-73.91579,40.76427,"['38th St & 30th Ave', 'New York, NY 11103']",New York,NY,11103.0,1.0,4.5,3,0,0,0,0,halal
170,C2C2r8-4Qfy4tAV1m4NUyQ,Halal Cart,halal-cart-new-york-44,Halal,"[{'alias': 'halal', 'title': 'Halal'}]",POINT (-73.80019679999999 40.70334620000001),-73.8001968,40.70334620000001,"['Jamaica Ave And Parsons Blvd', 'New York, NY 11432']",New York,NY,11432.0,1.0,3.0,4,0,0,0,0,halal
171,tAHRDrCR0l_utA91IyOYNw,Baba Ghanouge,baba-ghanouge-new-york,Halal,"[{'alias': 'mediterranean', 'title': 'Mediterranean'}, {'alias': 'mideastern', 'title': 'Middle Eastern'}, {'alias': 'halal', 'title': 'Halal'}]",POINT (-74.00758 40.71511),-74.00758,40.71511,"['165 Church St', 'New York, NY 10007']",New York,NY,10007.0,1.0,3.0,112,0,1,1,0,halal
172,zJBko3yUPZEDwdIqWVGTIA,Mazaya Grillo,mazaya-grillo-bergenfield,Halal,"[{'alias': 'halal', 'title': 'Halal'}, {'alias': 'lebanese', 'title': 'Lebanese'}, {'alias': 'chickenshop', 'title': 'Chicken Shop'}]",POINT (-73.9971572 40.9147155),-73.9971572,40.9147155,"['389 S Washington Ave', 'Bergenfield, NJ 07621']",Bergenfield,NJ,7621.0,1.0,2.5,2,0,1,1,0,halal
173,FGmZOlLX64hqFDqcxmsiBw,Kiflu's Lunch Truck,kiflus-lunch-truck-new-york,Halal,"[{'alias': 'african', 'title': 'African'}, {'alias': 'foodstands', 'title': 'Food Stands'}, {'alias': 'halal', 'title': 'Halal'}]",POINT (-74.00739 40.71058),-74.00739,40.71058,"['Nassau St & Ann St', 'New York, NY 10038']",New York,NY,10038.0,1.0,3.5,2,0,0,0,0,halal
174,IZx0xAVqFGFKXsfE1f8HSQ,Pakiza Halal Food Cart,pakiza-halal-food-cart-new-york,Halal,"[{'alias': 'halal', 'title': 'Halal'}, {'alias': 'foodstands', 'title': 'Food Stands'}]",POINT (-74.00850600000003 40.706241),-74.00850600000003,40.706241,"['60 Wall St', 'New York, NY 10005']",New York,NY,10005.0,1.0,3.0,4,0,0,0,0,halal
175,VFMzoouTpbUrySFKaoGOEw,Halal Cart,halal-cart-long-island-city,Halal,"[{'alias': 'halal', 'title': 'Halal'}]",POINT (-73.91370000000001 40.7654799),-73.9137,40.7654799,"['28TH Ave And Steinway St', 'Long Island City, NY 11103']",Long Island City,NY,11103.0,1.0,2.5,7,0,0,0,0,halal
176,LTOSAgZs9jMKe330Cd6Tew,Express Power Lunch,express-power-lunch-new-york-4,Halal,"[{'alias': 'halal', 'title': 'Halal'}, {'alias': 'foodstands', 'title': 'Food Stands'}]",POINT (-73.98826 40.74913),-73.98826,40.74913,"['33rd St & 6th Ave', 'New York, NY 10001']",New York,NY,10001.0,1.0,3.0,3,0,0,0,0,halal
177,yuXtQqr4ThzePf2HZ2oY6w,New Texas Fried Chicken,new-texas-fried-chicken-ridgewood,Halal,"[{'alias': 'chicken_wings', 'title': 'Chicken Wings'}, {'alias': 'halal', 'title': 'Halal'}]",POINT (-73.9063888279627 40.7003410169651),-73.9063888279627,40.700341016965105,"['803 Cypress Ave', 'Ridgewood, NY 11385']",Ridgewood,NY,11385.0,1.0,3.0,15,0,0,0,0,halal
178,IAPukZTCPkhxZ4HrcHAkuQ,Datta Restaurant,datta-restaurant-long-island-city,Halal,"[{'alias': 'halal', 'title': 'Halal'}]",POINT (-73.92353743947349 40.75355363580921),-73.92353743947349,40.75355363580921,"['34-2 Steinway St', 'Long Island City, NY 11101']",Long Island City,NY,11101.0,1.0,3.0,1,0,0,0,0,halal
179,gpfIg2fbVezmiEiFJvVmJw,Halal Cart,halal-cart-manhattan-22,Halal,"[{'alias': 'halal', 'title': 'Halal'}, {'alias': 'foodstands', 'title': 'Food Stands'}]",POINT (-73.9877801388502 40.7506701350212),-73.9877801388502,40.7506701350212,"['35TH St And Broadway', 'Manhattan, NY 10018']",Manhattan,NY,10018.0,1.0,2.5,3,0,0,0,0,halal
180,RJiU4vY5Rk6Dp4xew6FPFQ,Sumela Mediterranean Cafe & Grill,sumela-mediterranean-cafe-and-grill-new-york,Halal,"[{'alias': 'mediterranean', 'title': 'Mediterranean'}, {'alias': 'turkish', 'title': 'Turkish'}, {'alias': 'halal', 'title': 'Halal'}]",POINT (-73.95045033484701 40.7750785978051),-73.950450334847,40.7750785978051,"['1606 1st Ave', 'New York, NY 10028']",New York,NY,10028.0,3.0,4.5,54,0,1,1,1,halal
181,amU4dSDarmtIU-D3pU687A,Minar Kabab tikka corner,minar-kabab-tikka-corner-jersey-city-2,Halal,"[{'alias': 'meats', 'title': 'Meat Shops'}, {'alias': 'halal', 'title': 'Halal'}]",POINT (-74.06385 40.73522),-74.06385,40.73522,"['771 Newark Ave', 'Jersey City, NJ 07306']",Jersey City,NJ,7306.0,3.0,3.0,10,0,0,0,0,halal
182,YMMzKiyXHhltXIqy2sMiAA,Curry & Kebab,curry-and-kebab-bronx,Halal,"[{'alias': 'halal', 'title': 'Halal'}, {'alias': 'indpak', 'title': 'Indian'}]",POINT (-73.8795868679881 40.87406943349061),-73.8795868679881,40.87406943349061,"['3111 Bainbridge Ave', 'Bronx, NY 10467']",Bronx,NY,10467.0,2.0,4.5,66,0,1,1,0,halal
183,PAhIveQCsTzi7FNPPQPutA,Chandni Chowk Restaurant,chandni-chowk-restaurant-east-bronx,Halal,"[{'alias': 'indpak', 'title': 'Indian'}, {'alias': 'halal', 'title': 'Halal'}, {'alias': 'pakistani', 'title': 'Pakistani'}]",POINT (-73.8613699 40.86531),-73.8613699,40.86531,"['2570 Bronxwood Ave', 'East Bronx, NY 10469']",East Bronx,NY,10469.0,2.0,4.5,12,0,0,0,0,halal
184,rvGFn8nvIbzU_mch8aKHZg,HijaziHut,hijazihut-bronx-3,Halal,"[{'alias': 'mideastern', 'title': 'Middle Eastern'}, {'alias': 'halal', 'title': 'Halal'}, {'alias': 'falafel', 'title': 'Falafel'}]",POINT (-73.85316 40.8366),-73.85316,40.8366,"['2165 Starling Ave', 'Bronx, NY 10462']",Bronx,NY,10462.0,2.0,3.5,10,0,1,1,0,halal
185,O2Wf9JozX-Av2SOV6EvmNw,Burgers By Honest Chops,burgers-by-honest-chops-new-york-4,Halal,"[{'alias': 'halal', 'title': 'Halal'}, {'alias': 'burgers', 'title': 'Burgers'}, {'alias': 'hotdogs', 'title': 'Fast Food'}]",POINT (-74.00102891027929 40.7296280240533),-74.00102891027929,40.7296280240533,"['99 Macdougal St', 'New York, NY 10012']",New York,NY,10012.0,2.0,4.0,187,0,1,1,0,halal
186,xyHakz7K8D6y0tZ07xl-Uw,Nawab,nawab-yonkers,Halal,"[{'alias': 'indpak', 'title': 'Indian'}, {'alias': 'pakistani', 'title': 'Pakistani'}, {'alias': 'halal', 'title': 'Halal'}]",POINT (-73.89871120000002 40.9330657),-73.89871120000002,40.9330657,"['2 Hudson St', 'Yonkers, NY 10701']",Yonkers,NY,10701.0,2.0,4.0,102,0,1,1,0,halal
187,_eDqIOQKEntGHC6JgVYyCg,Anchor Grill,anchor-grill-new-york-2,Halal,"[{'alias': 'modern_european', 'title': 'Modern European'}, {'alias': 'halal', 'title': 'Halal'}, {'alias': 'mediterranean', 'title': 'Mediterranean'}]",POINT (-73.98926999999998 40.7625),-73.98926999999998,40.7625,"['712 9th Ave', 'New York, NY 10019']",New York,NY,10019.0,2.0,4.5,42,0,1,1,0,halal
188,fcZslhOdQJgRdi04UMf0PA,Cinar Turkish Restaurant,cinar-turkish-restaurant-cliffside-park,Halal,"[{'alias': 'turkish', 'title': 'Turkish'}, {'alias': 'mideastern', 'title': 'Middle Eastern'}, {'alias': 'halal', 'title': 'Halal'}]",POINT (-73.98290991783141 40.8253370864609),-73.9829099178314,40.8253370864609,"['677 Palisade Ave', 'Cliffside Park, NJ 07010']",Cliffside Park,NJ,7010.0,2.0,4.5,241,0,1,1,1,halal
189,7gZGVdqMch7ls0IGO3DijQ,Agora Turkish Restaurant,agora-turkish-restaurant-new-york-2,Halal,"[{'alias': 'turkish', 'title': 'Turkish'}, {'alias': 'mediterranean', 'title': 'Mediterranean'}, {'alias': 'halal', 'title': 'Halal'}]",POINT (-73.954193 40.774955),-73.954193,40.774955,"['1565 2nd Ave', 'New York, NY 10028']",New York,NY,10028.0,2.0,4.5,396,0,1,1,1,halal
190,1ubEg-rrSE8IWXl6lJzIGw,Nur Thai,nur-thai-rego-park,Halal,"[{'alias': 'thai', 'title': 'Thai'}, {'alias': 'halal', 'title': 'Halal'}]",POINT (-73.868817789544 40.7235516378586),-73.868817789544,40.7235516378586,"['63-32 Woodhaven Blvd', 'Rego Park, NY 11374']",Rego Park,NY,11374.0,2.0,4.0,393,0,1,1,1,halal
191,EbX_9tqAJs4gW51gZpOB7g,Rasa,rasa-new-york,Halal,"[{'alias': 'malaysian', 'title': 'Malaysian'}, {'alias': 'sushi', 'title': 'Sushi Bars'}, {'alias': 'halal', 'title': 'Halal'}]",POINT (-73.99756740000002 40.7327654),-73.99756740000002,40.7327654,"['25 W 8th St', 'New York, NY 10011']",New York,NY,10011.0,2.0,4.0,517,0,1,1,1,halal
192,-QIPdiq5ILg_EJqdVoCqEA,Istanbul Kebab House,istanbul-kebab-house-new-york,Halal,"[{'alias': 'turkish', 'title': 'Turkish'}, {'alias': 'halal', 'title': 'Halal'}, {'alias': 'mediterranean', 'title': 'Mediterranean'}]",POINT (-73.98926999999998 40.7625),-73.98926999999998,40.7625,"['712 9th Ave', 'New York, NY 10019']",New York,NY,10019.0,2.0,4.0,424,0,1,1,1,halal
193,0BcydXe2sU0aPwSRAq3zgw,Asian Taste 86,asian-taste-86-elmhurst,Halal,"[{'alias': 'halal', 'title': 'Halal'}, {'alias': 'indonesian', 'title': 'Indonesian'}]",POINT (-73.87859899999999 40.741765),-73.878599,40.741765,"['8610 Whitney Ave', 'Elmhurst, NY 11373']",Elmhurst,NY,11373.0,2.0,4.0,52,0,0,0,0,halal
194,f-zrHb-WTfWbINx5pdcyZQ,Munch,munch-forest-hills,Halal,"[{'alias': 'halal', 'title': 'Halal'}, {'alias': 'newamerican', 'title': 'American (New)'}, {'alias': 'burgers', 'title': 'Burgers'}]",POINT (-73.84618 40.72089),-73.84618,40.72089,"['70-19 Austin St', 'Forest Hills, NY 11375']",Forest Hills,NY,11375.0,2.0,3.5,195,0,1,0,0,halal
195,deJwwVdY2L88MAMKxE5S7A,King of Falafel & Shawarma - Restaurant,king-of-falafel-and-shawarma-restaurant-astoria,Halal,"[{'alias': 'halal', 'title': 'Halal'}, {'alias': 'mideastern', 'title': 'Middle Eastern'}]",POINT (-73.9255477918848 40.7621880914364),-73.9255477918848,40.7621880914364,"['30-15 Broadway', 'Astoria, NY 11106']",Astoria,NY,11106.0,2.0,4.0,191,0,1,1,0,halal
196,mNf8XWHW8peGNhCr9HNWQw,Mirch Grill And Clay Oven,mirch-grill-and-clay-oven-jamaica,Halal,"[{'alias': 'indpak', 'title': 'Indian'}, {'alias': 'halal', 'title': 'Halal'}, {'alias': 'steak', 'title': 'Steakhouses'}]",POINT (-73.7899665462448 40.711963143455),-73.7899665462448,40.711963143455,"['172-27 Hillside Ave', 'Jamaica, NY 11432']",Jamaica,NY,11432.0,2.0,4.0,86,0,1,0,0,halal
197,BSBCcMu6ups8bf8t8R29HA,Mado Restaurant,mado-restaurant-river-edge,Halal,"[{'alias': 'mediterranean', 'title': 'Mediterranean'}, {'alias': 'halal', 'title': 'Halal'}, {'alias': 'mideastern', 'title': 'Middle Eastern'}]",POINT (-74.03388000000002 40.92695),-74.03388000000002,40.92695,"['570 Kinderkamack Rd', 'River Edge, NJ 07661']",River Edge,NJ,7661.0,2.0,4.0,45,0,1,1,0,halal
198,gRskMlB-wyrJE4YqzOz0Yw,Rose Restaurant,rose-restaurant-teaneck-2,Halal,"[{'alias': 'persian', 'title': 'Persian/Iranian'}, {'alias': 'mediterranean', 'title': 'Mediterranean'}, {'alias': 'halal', 'title': 'Halal'}]",POINT (-74.00263299999997 40.8930099),-74.00263299999997,40.8930099,"['1150 Teaneck Rd', 'Teaneck, NJ 07666']",Teaneck,NJ,7666.0,2.0,4.0,49,0,1,1,0,halal
199,ca87UUQLsgjbVvHWg8Su6A,Afghan Grill,afghan-grill-new-hyde-park-2,Halal,"[{'alias': 'afghani', 'title': 'Afghan'}, {'alias': 'halal', 'title': 'Halal'}]",POINT (-73.684393 40.749021),-73.684393,40.749021,"['1629 Hillside Ave', 'New Hyde Park, NY 11040']",New Hyde Park,NY,11040.0,2.0,4.5,166,0,0,0,0,halal
200,1u_vkRFPuT8Aeh7Zk3bKyw,Galata Mediterranean Cuisine,galata-mediterranean-cuisine-new-york,Halal,"[{'alias': 'turkish', 'title': 'Turkish'}, {'alias': 'mediterranean', 'title': 'Mediterranean'}, {'alias': 'halal', 'title': 'Halal'}]",POINT (-73.9776 40.74522),-73.9776,40.74522,"['212 E 34th St', 'New York, NY 10016']",New York,NY,10016.0,2.0,4.5,224,0,1,1,1,halal
201,6V67nWoMAmikODuyQNQ3fw,Honest Chops Butchery,honest-chops-butchery-new-york,Halal,"[{'alias': 'butcher', 'title': 'Butcher'}, {'alias': 'halal', 'title': 'Halal'}, {'alias': 'organic_stores', 'title': 'Organic Stores'}]",POINT (-73.98610699999998 40.728951),-73.98610699999998,40.728951,"['319 E 9th St', 'New York, NY 10003']",New York,NY,10003.0,2.0,4.5,89,0,0,0,0,halal
202,KxFUde0zYhZXBeJKnwPzMg,Tallgrass Burger,tallgrass-burger-new-york,Halal,"[{'alias': 'burgers', 'title': 'Burgers'}, {'alias': 'sandwiches', 'title': 'Sandwiches'}, {'alias': 'halal', 'title': 'Halal'}]",POINT (-73.98288000000002 40.73042),-73.98288000000002,40.73042,"['214 1st Ave', 'New York, NY 10009']",New York,NY,10009.0,2.0,3.5,164,0,1,1,0,halal
203,lP8uDU4oNEkPD8-Ik-PvQQ,Awadh,awadh-new-york-3,Halal,"[{'alias': 'indpak', 'title': 'Indian'}, {'alias': 'halal', 'title': 'Halal'}]",POINT (-73.97071600000002 40.79583),-73.97071600000002,40.79583,"['2588 Broadway', 'New York, NY 10025']",New York,NY,10025.0,2.0,3.5,247,0,1,1,1,halal
204,vx2JV9juVzSBRGWHOZCTAQ,ABA Turkish Restaurant,aba-turkish-restaurant-new-york,Halal,"[{'alias': 'turkish', 'title': 'Turkish'}, {'alias': 'mediterranean', 'title': 'Mediterranean'}, {'alias': 'halal', 'title': 'Halal'}]",POINT (-73.9838727571167 40.7672794037324),-73.9838727571167,40.7672794037324,"['325 W 57th St', 'New York, NY 10019']",New York,NY,10019.0,2.0,4.0,390,0,1,1,0,halal
205,kTi9RbFCUGRySbZnq0pdlQ,Balkh Shish Kabab House,balkh-shish-kabab-house-astoria,Halal,"[{'alias': 'afghani', 'title': 'Afghan'}, {'alias': 'halal', 'title': 'Halal'}]",POINT (-73.91329484509941 40.774216658895),-73.91329484509941,40.774216658895,"['2310 31st St', 'Astoria, NY 11105']",Astoria,NY,11105.0,2.0,4.0,127,0,0,0,0,halal
206,MHuhN-URZQ22Anrpu6juhg,Main Bakhtar Halal Kabab,main-bakhtar-halal-kabab-flushing,Halal,"[{'alias': 'afghani', 'title': 'Afghan'}, {'alias': 'halal', 'title': 'Halal'}, {'alias': 'kebab', 'title': 'Kebab'}]",POINT (-73.8250243663788 40.7334864923026),-73.8250243663788,40.7334864923026,"['67-29 Main St', 'Flushing, NY 11367']",Flushing,NY,11367.0,2.0,4.0,87,0,0,0,0,halal
207,haK6aVs_oIUqwOn0LVZlRA,Turkuaz Restaurant,turkuaz-restaurant-new-york-3,Halal,"[{'alias': 'turkish', 'title': 'Turkish'}, {'alias': 'mediterranean', 'title': 'Mediterranean'}, {'alias': 'halal', 'title': 'Halal'}]",POINT (-73.98326999999998 40.76539),-73.98326999999998,40.76539,"['255 W 55th St', 'New York, NY 10019']",New York,NY,10019.0,2.0,4.5,29,0,1,1,1,halal
208,yauWDobtVPplAiACo1JuYA,Kabab Bites,kabab-bites-new-york,Halal,"[{'alias': 'indpak', 'title': 'Indian'}, {'alias': 'halal', 'title': 'Halal'}]",POINT (-73.99592 40.72002),-73.99592,40.72002,"['369 Broome St', 'New York, NY 10013']",New York,NY,10013.0,2.0,4.0,71,0,1,1,1,halal
209,R0J-L1QYhK07D9HVDHisUA,Cinar Turkish Restaurant,cinar-turkish-restaurant-emerson,Halal,"[{'alias': 'turkish', 'title': 'Turkish'}, {'alias': 'halal', 'title': 'Halal'}, {'alias': 'bars', 'title': 'Bars'}]",POINT (-74.0264 40.97649000000001),-74.0264,40.97649000000001,"['214 Kinderkamack Rd', 'Emerson, NJ 07630']",Emerson,NJ,7630.0,2.0,4.5,87,0,1,1,0,halal
210,Cq2IVq7VOlEzQ0YfdPqc-w,Amin's Chinese Halal Restaurant,amins-chinese-halal-restaurant-jersey-city,Halal,"[{'alias': 'chinese', 'title': 'Chinese'}, {'alias': 'halal', 'title': 'Halal'}]",POINT (-74.06586 40.73828),-74.06586,40.73828,"['215 Tonnele Ave', 'Jersey City, NJ 07306']",Jersey City,NJ,7306.0,2.0,3.0,37,0,0,0,0,halal
211,6KOeVK9KMmVG6Q3chyZ_Bg,Taste of Bengal,taste-of-bengal-astoria,Halal,"[{'alias': 'indpak', 'title': 'Indian'}, {'alias': 'bangladeshi', 'title': 'Bangladeshi'}, {'alias': 'halal', 'title': 'Halal'}]",POINT (-73.9204675118383 40.7677209471176),-73.9204675118383,40.7677209471176,"['2827 31st St', 'Astoria, NY 11102']",Astoria,NY,11102.0,2.0,4.5,123,0,1,1,0,halal
212,VEjkxniAlG35cR3pjHvF-A,Sagar Chinese - Jackson Heights,sagar-chinese-jackson-heights-jackson-heights,Halal,"[{'alias': 'chinese', 'title': 'Chinese'}, {'alias': 'halal', 'title': 'Halal'}, {'alias': 'asianfusion', 'title': 'Asian Fusion'}]",POINT (-73.89149559999998 40.7491052),-73.89149559999998,40.7491052,"['74-19 37th Ave', 'Jackson Heights, NY 11372']",Jackson Heights,NY,11372.0,2.0,3.5,53,0,0,0,0,halal
213,595Kf6h_Xd0hUaE__FKZNA,Midtown Grill,midtown-grill-jersey-city,Halal,"[{'alias': 'mediterranean', 'title': 'Mediterranean'}, {'alias': 'halal', 'title': 'Halal'}, {'alias': 'sandwiches', 'title': 'Sandwiches'}]",POINT (-74.0592405572534 40.7339976520599),-74.0592405572534,40.7339976520599,"['584 Summit Ave', 'Jersey City, NJ 07306']",Jersey City,NJ,7306.0,2.0,3.5,41,0,1,1,0,halal
214,qI18SQBMcNTNo4ZqosfEig,Junooon,junooon-fresh-meadows,Halal,"[{'alias': 'hookah_bars', 'title': 'Hookah Bars'}, {'alias': 'halal', 'title': 'Halal'}, {'alias': 'cafes', 'title': 'Cafes'}]",POINT (-73.788371 40.7266456),-73.788371,40.7266456,"['179-22 Union Tpke', 'Fresh Meadows, NY 11366']",Fresh Meadows,NY,11366.0,2.0,4.0,28,0,0,0,0,halal
215,-wnwpVjmtkHzvn7jPcLM-g,One Thai Chef,one-thai-chef-new-york,Halal,"[{'alias': 'thai', 'title': 'Thai'}, {'alias': 'halal', 'title': 'Halal'}]",POINT (-73.990471 40.75948),-73.990471,40.75948,"['339 W 44th St', 'New York, NY 10036']",New York,NY,10036.0,2.0,3.0,162,0,1,1,1,halal
216,RnMFZ_1O8yFb5iGEq1-kBA,Pamir Kabab House & Grill,pamir-kabab-house-and-grill-kew-gardens-5,Halal,"[{'alias': 'afghani', 'title': 'Afghan'}, {'alias': 'mideastern', 'title': 'Middle Eastern'}, {'alias': 'halal', 'title': 'Halal'}]",POINT (-73.81112348288299 40.7285972489951),-73.81112348288299,40.7285972489951,"['70-74 Kissena Blvd', 'Kew Gardens, NY 11367']",Kew Gardens,NY,11367.0,2.0,4.0,41,0,0,0,0,halal
217,fKl-XzMrRQyW9tjg9mhIGA,Sinbad Cafe & Grill,sinbad-cafe-and-grill-secaucus-2,Halal,"[{'alias': 'mideastern', 'title': 'Middle Eastern'}, {'alias': 'halal', 'title': 'Halal'}, {'alias': 'diners', 'title': 'Diners'}]",POINT (-74.06570000000001 40.79783),-74.0657,40.79783,"['20 Meadowlands Pkwy', 'Secaucus, NJ 07094']",Secaucus,NJ,7094.0,2.0,3.5,95,0,1,1,1,halal
218,GBa6g6b3LOJz4IPl4JDMkw,Taci's,tacis-forest-hills,Halal,"[{'alias': 'turkish', 'title': 'Turkish'}, {'alias': 'halal', 'title': 'Halal'}, {'alias': 'mediterranean', 'title': 'Mediterranean'}]",POINT (-73.85035000000001 40.71056),-73.85035,40.71056,"['102-07 Metropolitan Ave', 'Forest Hills, NY 11375']",Forest Hills,NY,11375.0,2.0,3.5,107,0,1,1,0,halal
219,cuUmPDEY-1KXzShGdpsqag,Turkish Kitchen,turkish-kitchen-new-york,Halal,"[{'alias': 'turkish', 'title': 'Turkish'}, {'alias': 'mediterranean', 'title': 'Mediterranean'}, {'alias': 'halal', 'title': 'Halal'}]",POINT (-73.98136 40.74189000000001),-73.98136,40.74189000000001,"['386 3rd Ave', 'New York, NY 10016']",New York,NY,10016.0,2.0,4.0,509,0,1,1,0,halal
220,HsEmXckXmsRAAEVDFCGYYg,Namaste,namaste-astoria-2,Halal,"[{'alias': 'indpak', 'title': 'Indian'}, {'alias': 'halal', 'title': 'Halal'}, {'alias': 'buffets', 'title': 'Buffets'}]",POINT (-73.92068 40.7668),-73.92068,40.7668,"['31-15 30th Ave', 'Astoria, NY 11102']",Astoria,NY,11102.0,2.0,4.0,460,0,1,1,1,halal
221,GafVAOtTmzjiC9B8jKPm_g,Upi Jaya,upi-jaya-elmhurst,Halal,"[{'alias': 'indonesian', 'title': 'Indonesian'}, {'alias': 'halal', 'title': 'Halal'}]",POINT (-73.888633 40.743198),-73.888633,40.743198,"['76-04 Woodside Ave', 'Elmhurst, NY 11373']",Elmhurst,NY,11373.0,2.0,3.5,152,0,0,0,0,halal
222,FvnExtQHPfz_crDCBTQ1iQ,Mint Masala,mint-masala-new-york,Halal,"[{'alias': 'indpak', 'title': 'Indian'}, {'alias': 'halal', 'title': 'Halal'}]",POINT (-74.00115 40.72953),-74.00115,40.72953,"['95 Macdougal St', 'New York, NY 10012']",New York,NY,10012.0,2.0,4.0,253,0,1,1,0,halal
223,w3GmN59xXxwEeZm1jT4fsw,Afghan Kebab House,afghan-kebab-house-floral-park,Halal,"[{'alias': 'afghani', 'title': 'Afghan'}, {'alias': 'halal', 'title': 'Halal'}]",POINT (-73.70883000000001 40.73748),-73.70883,40.73748,"['259-11 Hillside Ave', 'Floral Park, NY 11004']",Floral Park,NY,11004.0,2.0,4.0,19,0,1,1,0,halal
224,ZC6md0z2Uy6qJLZTaMFiKA,Pizza Party Time,pizza-party-time-ridgefield,Halal,"[{'alias': 'halal', 'title': 'Halal'}, {'alias': 'pizza', 'title': 'Pizza'}, {'alias': 'burgers', 'title': 'Burgers'}]",POINT (-74.01021949946879 40.83339549601079),-74.01021949946879,40.833395496010795,"['599 Broad Ave', 'Ridgefield, NJ 07657']",Ridgefield,NJ,7657.0,2.0,2.5,29,0,1,1,0,halal
225,F01dePvVzwREgGYEXqZtUQ,Sea Fish Market,sea-fish-market-jamaica,Halal,"[{'alias': 'seafood', 'title': 'Seafood'}, {'alias': 'seafoodmarkets', 'title': 'Seafood Markets'}, {'alias': 'halal', 'title': 'Halal'}]",POINT (-73.7597229 40.720581),-73.7597229,40.720581,"['205-02 Hillside Ave', 'Jamaica, NY 11423']",Jamaica,NY,11423.0,2.0,4.0,18,0,1,1,0,halal
226,7CloPu57SYPIrJAB1Ie0Ew,DhanShiri,dhanshiri-jamaica,Halal,"[{'alias': 'indpak', 'title': 'Indian'}, {'alias': 'chinese', 'title': 'Chinese'}, {'alias': 'halal', 'title': 'Halal'}]",POINT (-73.7921906 40.710867),-73.7921906,40.710867,"['169-28 Hillside Ave', 'Jamaica, NY 11432']",Jamaica,NY,11432.0,2.0,3.5,35,0,1,1,0,halal
227,MJujLVpgnp35vImtC-Cdrw,Royal Tangra Masala,royal-tangra-masala-new-hyde-park,Halal,"[{'alias': 'chinese', 'title': 'Chinese'}, {'alias': 'indpak', 'title': 'Indian'}, {'alias': 'halal', 'title': 'Halal'}]",POINT (-73.671789765358 40.75170479714871),-73.671789765358,40.75170479714871,"['2207 Hillside Ave', 'New Hyde Park, NY 11040']",New Hyde Park,NY,11040.0,2.0,3.5,89,0,1,0,0,halal
228,jOVE1CWC00mmI_4Y3xuOUg,Vintage Curry,vintage-curry-jamaica,Halal,"[{'alias': 'indpak', 'title': 'Indian'}, {'alias': 'halal', 'title': 'Halal'}]",POINT (-73.79359509999998 40.7101722),-73.79359509999998,40.7101722,"['8777 168th Pl', 'Jamaica, NY 11432']",Jamaica,NY,11432.0,2.0,3.5,50,0,1,1,1,halal
229,F4lLNqPJULJbiIm5CeoE9g,Sagar Chinese - Jamaica,sagar-chinese-jamaica-jamaica,Halal,"[{'alias': 'chinese', 'title': 'Chinese'}, {'alias': 'halal', 'title': 'Halal'}, {'alias': 'asianfusion', 'title': 'Asian Fusion'}]",POINT (-73.7929582996324 40.7113275704038),-73.7929582996324,40.711327570403796,"['87-47 Homelawn St', 'Jamaica, NY 11432']",Jamaica,NY,11432.0,2.0,3.5,121,0,0,0,0,halal
230,M0-rlIz0GAMZ9pNz1rgxKw,Sagar Chinese - Bellerose,sagar-chinese-bellerose-bellerose,Halal,"[{'alias': 'indpak', 'title': 'Indian'}, {'alias': 'chinese', 'title': 'Chinese'}, {'alias': 'halal', 'title': 'Halal'}]",POINT (-73.7184192 40.7437943),-73.7184192,40.7437943,"['252-05 Union Tpke', 'Bellerose, NY 11426']",Bellerose,NY,11426.0,2.0,3.0,135,0,0,0,0,halal
231,WNZSuuXBDZps5GmjnvypYw,Halal Cart,halal-cart-new-york-41,Halal,"[{'alias': 'halal', 'title': 'Halal'}, {'alias': 'foodstands', 'title': 'Food Stands'}]",POINT (-73.9820175 40.7705193),-73.9820175,40.7705193,"['62nd St & Broadway', 'New York, NY 10023']",New York,NY,10023.0,2.0,3.5,3,0,0,0,0,halal
232,wFFCe-z8I3oon7YD3oWJlQ,Lemony,lemony-new-york,Halal,"[{'alias': 'greek', 'title': 'Greek'}, {'alias': 'mediterranean', 'title': 'Mediterranean'}, {'alias': 'halal', 'title': 'Halal'}]",POINT (-73.99121 40.75202),-73.99121,40.75202,"['224 W 35th St', 'New York, NY 10001']",New York,NY,10001.0,2.0,3.5,105,0,1,1,0,halal
233,ugYhnKrr3Q1TVV15R0EEWQ,AnTalia NYC,antalia-nyc-new-york-2,Halal,"[{'alias': 'turkish', 'title': 'Turkish'}, {'alias': 'mediterranean', 'title': 'Mediterranean'}, {'alias': 'halal', 'title': 'Halal'}]",POINT (-73.980346 40.755905),-73.980346,40.755905,"['17 W 45th St', 'New York, NY 10036']",New York,NY,10036.0,2.0,4.0,352,0,1,1,1,halal
234,qQPs2IvY81FX0wX3vRnHqg,Taipan Fusion Restaurant and Hookah Lounge,taipan-fusion-restaurant-and-hookah-lounge-fresh-meadows,Halal,"[{'alias': 'halal', 'title': 'Halal'}, {'alias': 'thai', 'title': 'Thai'}, {'alias': 'chinese', 'title': 'Chinese'}]",POINT (-73.7898183614016 40.7396737486124),-73.7898183614016,40.7396737486124,"['184-22 Horace Harding Expy', 'Fresh Meadows, NY 11365']",Fresh Meadows,NY,11365.0,2.0,2.5,129,0,1,0,0,halal
235,x9E45syKN2lcE-o7FSkOHg,Nile Gourmet Deli,nile-gourmet-deli-astoria,Halal,"[{'alias': 'halal', 'title': 'Halal'}, {'alias': 'delis', 'title': 'Delis'}]",POINT (-73.91222900000002 40.767736),-73.91222900000002,40.767736,"['2512 Steinway St', 'Astoria, NY 11103']",Astoria,NY,11103.0,2.0,3.5,7,0,0,0,0,halal
236,u_j2PopX_tFfQvrlerjmmA,Golconda Chimney,golconda-chimney-jersey-city-2,Halal,"[{'alias': 'indpak', 'title': 'Indian'}, {'alias': 'halal', 'title': 'Halal'}, {'alias': 'vegetarian', 'title': 'Vegetarian'}]",POINT (-74.06516999999999 40.73585),-74.06517,40.73585,"['806 Newark Ave', 'Jersey City, NJ 07306']",Jersey City,NJ,7306.0,2.0,3.0,93,0,1,1,0,halal
237,I8X2NYRYHdWrGrxIHZFJ5A,Tangra Asian Fusion Cuisine,tangra-asian-fusion-cuisine-sunnyside,Halal,"[{'alias': 'halal', 'title': 'Halal'}, {'alias': 'indpak', 'title': 'Indian'}, {'alias': 'asianfusion', 'title': 'Asian Fusion'}]",POINT (-73.92489 40.74427),-73.92489,40.74427,"['3923 Queens Blvd', 'Sunnyside, NY 11104']",Sunnyside,NY,11104.0,2.0,3.0,200,0,1,1,0,halal
238,eT2rROrWDAr0auGYqQrp9A,Layali Beirut Cafe Restaurant,layali-beirut-cafe-restaurant-astoria,Halal,"[{'alias': 'hookah_bars', 'title': 'Hookah Bars'}, {'alias': 'halal', 'title': 'Halal'}, {'alias': 'lebanese', 'title': 'Lebanese'}]",POINT (-73.9131 40.76658),-73.9131,40.76658,"['25-60 Steinway St', 'Astoria, NY 11102']",Astoria,NY,11102.0,2.0,3.5,89,0,0,0,0,halal
239,oSMFe-10TyH40NIXG0Zahw,Vaibhav Indian Spice Journey,vaibhav-indian-spice-journey-jersey-city-6,Halal,"[{'alias': 'indpak', 'title': 'Indian'}, {'alias': 'chinese', 'title': 'Chinese'}, {'alias': 'halal', 'title': 'Halal'}]",POINT (-74.0624069 40.73503),-74.0624069,40.73503,"['737 Newark Ave', 'Jersey City, NJ 07306']",Jersey City,NJ,7306.0,2.0,3.5,336,0,1,1,0,halal
240,Pl7usBOnUHmpCGWgD4J0Mg,Eata Pita,eata-pita-new-york,Halal,"[{'alias': 'mideastern', 'title': 'Middle Eastern'}, {'alias': 'sandwiches', 'title': 'Sandwiches'}, {'alias': 'halal', 'title': 'Halal'}]",POINT (-73.97793299999999 40.7524183),-73.977933,40.7524183,"['89 E 42nd St', 'Grand Central', 'New York, NY 10017']",New York,NY,10017.0,2.0,3.0,85,0,0,0,0,halal
241,PeLeSgbctqoS_L6g_cvjUw,Dera Restaurant,dera-restaurant-new-york-3,Halal,"[{'alias': 'indpak', 'title': 'Indian'}, {'alias': 'halal', 'title': 'Halal'}, {'alias': 'pakistani', 'title': 'Pakistani'}]",POINT (-73.98248199999998 40.742134),-73.98248199999998,40.742134,"['103 Lexington Ave', 'Between 27th & 28th St', 'New York, NY 10016']",New York,NY,10016.0,2.0,3.0,35,0,1,1,0,halal
242,x31Xmdw1ekbG-TdD8hT0_w,Curry Dream,curry-dream-new-york,Halal,"[{'alias': 'indpak', 'title': 'Indian'}, {'alias': 'halal', 'title': 'Halal'}]",POINT (-73.9852003 40.7526251),-73.9852003,40.7526251,"['66 W 39th St', 'New York, NY 10018']",New York,NY,10018.0,2.0,2.5,172,0,1,1,0,halal
243,iJX38wGhQFSQO3kchuRcMQ,Fayrooz Hookah Lounge & Bar,fayrooz-hookah-lounge-and-bar-astoria-2,Halal,"[{'alias': 'halal', 'title': 'Halal'}, {'alias': 'hookah_bars', 'title': 'Hookah Bars'}, {'alias': 'mideastern', 'title': 'Middle Eastern'}]",POINT (-73.91412690000001 40.765327),-73.91412690000001,40.765327,"['2808 Steinway St', 'Astoria, NY 11103']",Astoria,NY,11103.0,2.0,3.0,155,0,1,1,0,halal
244,T5KeFYeWoSn9u19EyLYVXQ,New York Fried Chicken,new-york-fried-chicken-jersey-city,Halal,"[{'alias': 'hotdogs', 'title': 'Fast Food'}, {'alias': 'halal', 'title': 'Halal'}, {'alias': 'burgers', 'title': 'Burgers'}]",POINT (-74.06665090000001 40.7319467),-74.06665090000001,40.7319467,"['2821 John F Kennedy Blvd', 'Jersey City, NJ 07306']",Jersey City,NJ,7306.0,4.0,4.0,9,0,0,0,0,halal
245,bG9Tsue1s3VFOo3Cx6-wvw,The Kebabci,the-kebabci-wood-ridge,Halal,"[{'alias': 'mediterranean', 'title': 'Mediterranean'}, {'alias': 'turkish', 'title': 'Turkish'}, {'alias': 'halal', 'title': 'Halal'}]",POINT (-74.08500600600921 40.8510403855984),-74.08500600600921,40.851040385598395,"['259 Valley Blvd', 'Wood-Ridge, NJ 07075']",Wood-Ridge,NJ,7075.0,2.0,4.5,86,0,1,1,0,halal
246,SbSfNyGKyarQC-ixuIn7fw,Lasiaf Taco & Lounge,lasiaf-taco-and-lounge-brooklyn,Halal,"[{'alias': 'halal', 'title': 'Halal'}, {'alias': 'mexican', 'title': 'Mexican'}]",POINT (-73.92574 40.61233),-73.92574,40.61233,"['2368 Flatbush Ave', 'Brooklyn, NY 11234']",Brooklyn,NY,11234.0,2.0,3.5,26,0,1,1,0,halal
247,bkYcT19Fyb95H_qjnVcIQw,The Bosphorus,the-bosphorus-nutley-5,Halal,"[{'alias': 'mediterranean', 'title': 'Mediterranean'}, {'alias': 'turkish', 'title': 'Turkish'}, {'alias': 'halal', 'title': 'Halal'}]",POINT (-74.16181627660991 40.8152626921391),-74.16181627660991,40.8152626921391,"['226 Franklin Ave', 'Nutley, NJ 07110']",Nutley,NJ,7110.0,2.0,4.5,365,0,1,0,1,halal
248,bNn8eQFyfVecKPczLxXa8w,Kabob On The Cliff,kabob-on-the-cliff-rutherford,Halal,"[{'alias': 'kebab', 'title': 'Kebab'}, {'alias': 'persian', 'title': 'Persian/Iranian'}, {'alias': 'halal', 'title': 'Halal'}]",POINT (-74.10370999999998 40.82777),-74.10370999999998,40.82777,"['66 Park Ave', 'Rutherford, NJ 07070']",Rutherford,NJ,7070.0,2.0,4.5,53,0,0,0,0,halal
249,ib_28sDmqYlMUDnfjPsS7A,Affy's Premium Grill,affys-premium-grill-brooklyn,Halal,"[{'alias': 'steak', 'title': 'Steakhouses'}, {'alias': 'burgers', 'title': 'Burgers'}, {'alias': 'halal', 'title': 'Halal'}]",POINT (-73.96218 40.61087),-73.96218,40.61087,"['1909 Coney Island Ave', 'Brooklyn, NY 11230']",Brooklyn,NY,11230.0,2.0,3.5,183,0,1,1,0,halal
250,wqOBqXkMar3xPOHfkWGwDA,The Soul Spot,the-soul-spot-brooklyn,Halal,"[{'alias': 'soulfood', 'title': 'Soul Food'}, {'alias': 'caribbean', 'title': 'Caribbean'}, {'alias': 'halal', 'title': 'Halal'}]",POINT (-73.98887499999999 40.688221),-73.988875,40.688221,"['302 Atlantic Ave', 'Brooklyn, NY 11201']",Brooklyn,NY,11201.0,2.0,3.0,209,0,1,1,0,halal
251,tEBX0bt3tXWCOYD_TeBxzg,Istanblue Kings Restaurant,istanblue-kings-restaurant-brooklyn,Halal,"[{'alias': 'kebab', 'title': 'Kebab'}, {'alias': 'halal', 'title': 'Halal'}, {'alias': 'turkish', 'title': 'Turkish'}]",POINT (-73.97426999999998 40.60429),-73.97426999999998,40.60429,"['428 Kings Hwy', 'Brooklyn, NY 11223']",Brooklyn,NY,11223.0,2.0,4.5,63,0,1,1,1,halal
252,EKY8DwZVWpkgv6IWrepbWg,Namaste,namaste-brooklyn-2,Halal,"[{'alias': 'indpak', 'title': 'Indian'}, {'alias': 'halal', 'title': 'Halal'}, {'alias': 'buffets', 'title': 'Buffets'}]",POINT (-73.97996500000001 40.676681),-73.979965,40.676681,"['195 5th Ave', 'Brooklyn, NY 11217']",Brooklyn,NY,11217.0,2.0,4.0,147,0,1,1,0,halal
253,FdB6KDTEmX8HvomPwySAHg,Joloff Restaurant,joloff-restaurant-brooklyn,Halal,"[{'alias': 'senegalese', 'title': 'Senegalese'}, {'alias': 'halal', 'title': 'Halal'}]",POINT (-73.95421999999998 40.6841),-73.95421999999998,40.6841,"['1168 Bedford Ave', 'Brooklyn, NY 11216']",Brooklyn,NY,11216.0,2.0,3.5,153,0,1,1,0,halal
254,0ORwxqRAliQvbYMIND19FQ,Masala Cafe,masala-cafe-newark-3,Halal,"[{'alias': 'indpak', 'title': 'Indian'}, {'alias': 'halal', 'title': 'Halal'}, {'alias': 'delis', 'title': 'Delis'}]",POINT (-74.17251 40.7376),-74.17251,40.7376,"['27 Academy St', 'Newark, NJ 07102']",Newark,NJ,7102.0,2.0,3.5,14,0,1,1,0,halal
255,Z2qZSs6oVJQFSc44tytAHg,India House Restaurant,india-house-restaurant-brooklyn-4,Halal,"[{'alias': 'indpak', 'title': 'Indian'}, {'alias': 'halal', 'title': 'Halal'}, {'alias': 'vegetarian', 'title': 'Vegetarian'}]",POINT (-73.9496699720621 40.6787193651342),-73.9496699720621,40.6787193651342,"['586 Nostrand Ave', 'Brooklyn, NY 11216']",Brooklyn,NY,11216.0,2.0,4.0,111,0,1,1,1,halal
256,lDSaMr7SRi3n-S2jT7Czyw,Sameer's Halal Food Truck,sameers-halal-food-truck-new-york,Halal,"[{'alias': 'foodtrucks', 'title': 'Food Trucks'}, {'alias': 'halal', 'title': 'Halal'}]",POINT (-73.86097072701409 40.692412103109),-73.86097072701409,40.692412103109,"['Jamaica Ave', 'Forest Parkway', 'New York, NY 11421']",New York,NY,11421.0,1.0,5.0,24,0,0,0,0,halal
257,qEXpXF4p8uM1BfqV5tdYqg,Darbars Chicken & Ribs,darbars-chicken-and-ribs-south-richmond-hill,Halal,"[{'alias': 'halal', 'title': 'Halal'}, {'alias': 'chicken_wings', 'title': 'Chicken Wings'}, {'alias': 'burgers', 'title': 'Burgers'}]",POINT (-73.81814079999999 40.688737),-73.8181408,40.688737,"['12609 Liberty Ave', 'South Richmond Hill, NY 11419']",South Richmond Hill,NY,11419.0,1.0,3.5,75,0,1,1,0,halal
258,5rSGrCo37OujKP8HyEhPvA,Brooklyn Halal Grill,brooklyn-halal-grill-brooklyn,Halal,"[{'alias': 'halal', 'title': 'Halal'}]",POINT (-73.8668 40.67865),-73.8668,40.67865,"['1148 Liberty Ave', 'Brooklyn, NY 11208']",Brooklyn,NY,11208.0,1.0,4.5,19,0,0,0,0,halal
259,IdZ9HpVlPA4nVK20-VNQxg,M&M Bakery & Halal Restaurant,m-and-m-bakery-and-halal-restaurant-queens,Halal,"[{'alias': 'halal', 'title': 'Halal'}]",POINT (-73.82363000000002 40.68668),-73.82363000000002,40.68668,"['119-15 Liberty Ave', 'Queens, NY 11419']",Queens,NY,11419.0,1.0,5.0,3,0,0,0,0,halal
260,1xgc4A0YJ_UphFYb09fFjA,Mia Halal Food,mia-halal-food-ozone-park,Halal,"[{'alias': 'halal', 'title': 'Halal'}, {'alias': 'mideastern', 'title': 'Middle Eastern'}, {'alias': 'afghani', 'title': 'Afghan'}]",POINT (-73.8442086245022 40.6800527532573),-73.8442086245022,40.6800527532573,"['105-07 Cross Bay Blvd', 'Ozone Park, NY 11417']",Ozone Park,NY,11417.0,1.0,3.5,75,0,1,0,0,halal
261,htoeGFLUzB37wQee7A2qRQ,The Halal Spot,the-halal-spot-brooklyn,Halal,"[{'alias': 'halal', 'title': 'Halal'}, {'alias': 'salad', 'title': 'Salad'}, {'alias': 'sandwiches', 'title': 'Sandwiches'}]",POINT (-73.96634209999998 40.6933499872684),-73.96634209999998,40.6933499872684,"['474 Myrtle Ave', 'Brooklyn, NY 11205']",Brooklyn,NY,11205.0,1.0,4.0,58,0,1,1,0,halal
262,Oi_5W6x2R7jSIjibjNeLEQ,Darbars Halal Roti Spot,darbars-halal-roti-spot-jamaica,Halal,"[{'alias': 'halal', 'title': 'Halal'}, {'alias': 'caribbean', 'title': 'Caribbean'}, {'alias': 'soulfood', 'title': 'Soul Food'}]",POINT (-73.8167445767223 40.689112042894),-73.8167445767223,40.689112042894,"['128-12 Liberty Ave', 'Jamaica, NY 11419']",Jamaica,NY,11419.0,1.0,4.0,4,0,1,1,0,halal
263,YMxYERPyFcaxMOSYr5TUMg,Hamza & Madina Halal Food,hamza-and-madina-halal-food-hicksville,Halal,"[{'alias': 'streetvendors', 'title': 'Street Vendors'}, {'alias': 'halal', 'title': 'Halal'}, {'alias': 'foodtrucks', 'title': 'Food Trucks'}]",POINT (-73.52141999999998 40.76519),-73.52141999999998,40.76519,"['154 Broadway', 'Hicksville, NY 11801']",Hicksville,NY,11801.0,1.0,4.5,183,0,0,0,0,halal
264,8qnad4gP8BwVN4ZS5Mn6zg,New York Halal & Company,new-york-halal-and-company-brooklyn,Halal,"[{'alias': 'halal', 'title': 'Halal'}]",POINT (-73.961217 40.654871),-73.961217,40.654871,"['188 Parkside Ave', 'Brooklyn, NY 11226']",Brooklyn,NY,11226.0,1.0,4.0,19,0,1,1,0,halal
265,rthmFnic6BxJDGuQ2h8_cw,Sahara Grill Food Cart,sahara-grill-food-cart-south-ozone-park,Halal,"[{'alias': 'falafel', 'title': 'Falafel'}, {'alias': 'foodstands', 'title': 'Food Stands'}, {'alias': 'halal', 'title': 'Halal'}]",POINT (-73.8189392 40.6756783),-73.8189392,40.6756783,"['119-02 Rockway Blvd', 'South Ozone Park, NY 11420']",South Ozone Park,NY,11420.0,1.0,4.0,7,0,0,0,0,halal
266,HNYWPCTLe78wdby34ffMKg,Al Noor Halal Deli,al-noor-halal-deli-greenwood,Halal,"[{'alias': 'halal', 'title': 'Halal'}, {'alias': 'delis', 'title': 'Delis'}, {'alias': 'sandwiches', 'title': 'Sandwiches'}]",POINT (-73.996589 40.66222),-73.996589,40.66222,"['710 4th Ave', 'Greenwood, NY 11232']",Greenwood,NY,11232.0,1.0,4.5,49,0,1,1,0,halal
267,ubeG-hyIV8qoSSAk_pAZ2A,No Pork Halal Kitchen,no-pork-halal-kitchen-brooklyn,Halal,"[{'alias': 'chinese', 'title': 'Chinese'}, {'alias': 'halal', 'title': 'Halal'}, {'alias': 'chicken_wings', 'title': 'Chicken Wings'}]",POINT (-73.97936 40.68332),-73.97936,40.68332,"['50 4th Ave', 'Brooklyn, NY 11217']",Brooklyn,NY,11217.0,1.0,4.0,90,0,0,0,0,halal
268,J6V8m1BuqXub2uZvoRX8pQ,Sal Restaurant,sal-restaurant-brooklyn,Halal,"[{'alias': 'tradamerican', 'title': 'American (Traditional)'}, {'alias': 'halal', 'title': 'Halal'}, {'alias': 'breakfast_brunch', 'title': 'Breakfast & Brunch'}]",POINT (-73.95829000000001 40.6702),-73.95829,40.6702,"['810 Franklin Ave', 'Brooklyn, NY 11225']",Brooklyn,NY,11225.0,1.0,4.5,23,0,0,0,0,halal
269,M45jHhTaU6ePHDEibXk9nQ,Halal Paradise,halal-paradise-brooklyn,Halal,"[{'alias': 'halal', 'title': 'Halal'}, {'alias': 'mideastern', 'title': 'Middle Eastern'}, {'alias': 'foodstands', 'title': 'Food Stands'}]",POINT (-73.97873257080781 40.6837458984901),-73.97873257080781,40.6837458984901,"['4TH Ave And Pacific St', 'Brooklyn, NY 11231']",Brooklyn,NY,11231.0,1.0,4.5,29,0,0,0,0,halal
270,kEldSvOsAvaBVPHnN5pGEQ,Lumas Halal Food,lumas-halal-food-west-hempstead,Halal,"[{'alias': 'streetvendors', 'title': 'Street Vendors'}, {'alias': 'halal', 'title': 'Halal'}]",POINT (-73.6412 40.7037),-73.6412,40.7037,"['111 Hempstead Tnpk', 'West Hempstead, NY 11552']",West Hempstead,NY,11552.0,1.0,4.5,13,0,0,0,0,halal
271,tNzfPNzHelcOXmT2S6llUw,BBQ Nite,bbq-nite-elmont-2,Halal,"[{'alias': 'bbq', 'title': 'Barbeque'}, {'alias': 'halal', 'title': 'Halal'}, {'alias': 'hotdogs', 'title': 'Fast Food'}]",POINT (-73.71697345675291 40.6947012590948),-73.71697345675291,40.6947012590948,"['663 Elmont Rd', 'Elmont, NY 11003']",Elmont,NY,11003.0,1.0,4.0,44,0,0,0,0,halal
272,n0u3TXgenMnNmHkFmXceLA,Empire Halal Grill,empire-halal-grill-east-meadow,Halal,"[{'alias': 'foodtrucks', 'title': 'Food Trucks'}, {'alias': 'halal', 'title': 'Halal'}]",POINT (-73.5428453715249 40.7266605936746),-73.5428453715249,40.7266605936746,"['2465 Hempstead Tpke', 'East Meadow, NY 11554']",East Meadow,NY,11554.0,1.0,4.5,59,0,1,1,0,halal
273,YpIMMamKh0jTAd4bpedbqA,The Halal Spot,the-halal-spot-carteret,Halal,"[{'alias': 'halal', 'title': 'Halal'}, {'alias': 'mediterranean', 'title': 'Mediterranean'}, {'alias': 'greek', 'title': 'Greek'}]",POINT (-74.24199 40.5927),-74.24199,40.5927,"['1249 Roosevelt Ave', 'Carteret, NJ 07008']",Carteret,NJ,7008.0,1.0,4.5,94,0,1,0,0,halal
274,z4RiUzzM-gC8J0Wyxjtp5w,Wok & Grill,wok-and-grill-elmont,Halal,"[{'alias': 'indpak', 'title': 'Indian'}, {'alias': 'halal', 'title': 'Halal'}, {'alias': 'chinese', 'title': 'Chinese'}]",POINT (-73.71944490820171 40.6919909586972),-73.71944490820171,40.691990958697204,"['739 Elmont Rd', 'Elmont, NY 11003']",Elmont,NY,11003.0,1.0,4.5,5,0,0,0,0,halal
275,kk-Tm4qhAmlUtZwO7JFYRw,Ny Gyro King,ny-gyro-king-bloomfield-2,Halal,"[{'alias': 'halal', 'title': 'Halal'}, {'alias': 'falafel', 'title': 'Falafel'}]",POINT (-74.198249 40.793704),-74.198249,40.793704,"['588A Bloomfield Ave', 'Bloomfield, NJ 07003']",Bloomfield,NJ,7003.0,1.0,4.5,130,0,0,0,0,halal
276,qF54-ljC9cxXRK9VHPY4Mg,Juicy Halal Mediterranean,juicy-halal-mediterranean-fair-lawn,Halal,"[{'alias': 'halal', 'title': 'Halal'}, {'alias': 'mediterranean', 'title': 'Mediterranean'}, {'alias': 'hotdogs', 'title': 'Fast Food'}]",POINT (-74.11197230493541 40.922494898118),-74.1119723049354,40.922494898118,"['23-16 Broadway', 'Fair Lawn, NJ 07410']",Fair Lawn,NJ,7410.0,1.0,4.0,698,0,0,0,0,halal
277,YeHpkrrwJX8Pdh3JcUCKBg,Shahs Halal Bellmore,shahs-halal-bellmore-bellmore,Halal,"[{'alias': 'halal', 'title': 'Halal'}, {'alias': 'mideastern', 'title': 'Middle Eastern'}, {'alias': 'falafel', 'title': 'Falafel'}]",POINT (-73.52629297521709 40.6635478490099),-73.52629297521709,40.6635478490099,"['2699 Merrick Rd', 'Bellmore, NY 11710']",Bellmore,NY,11710.0,1.0,4.5,39,0,1,1,0,halal
278,ctVgx_mIwt2Fwc48Pgjhlw,Gyro Mania,gyro-mania-bath-beach,Halal,"[{'alias': 'halal', 'title': 'Halal'}, {'alias': 'falafel', 'title': 'Falafel'}, {'alias': 'seafood', 'title': 'Seafood'}]",POINT (-73.99793883681741 40.59894435219579),-73.99793883681741,40.59894435219579,"['2151 Bath Ave', 'Bath Beach, NY 11214']",Bath Beach,NY,11214.0,1.0,4.0,21,0,0,0,0,halal
279,U45dUNzVKs2KlM5HRgbDGA,Halal International,halal-international-brooklyn-2,Halal,"[{'alias': 'mideastern', 'title': 'Middle Eastern'}, {'alias': 'halal', 'title': 'Halal'}]",POINT (-73.97881 40.68442),-73.97881,40.68442,"['574 Atlantic Ave', 'Brooklyn, NY 11217']",Brooklyn,NY,11217.0,1.0,4.0,37,0,1,1,0,halal
280,TjANQSk-dV95xvmDS6DasQ,Medina Halal Fried Chicken & Pizza,medina-halal-fried-chicken-and-pizza-ozone-park,Halal,"[{'alias': 'halal', 'title': 'Halal'}, {'alias': 'hotdogs', 'title': 'Fast Food'}]",POINT (-73.86086 40.6802599),-73.86086,40.6802599,"['76-17 101st Ave', 'Ozone Park, NY 11416']",Ozone Park,NY,11416.0,1.0,2.0,11,0,1,1,0,halal
281,KPGZ6zr6lUX9YROjGcUbtw,Peri Peri Grill House,peri-peri-grill-house-brooklyn,Halal,"[{'alias': 'hotdogs', 'title': 'Fast Food'}, {'alias': 'chickenshop', 'title': 'Chicken Shop'}, {'alias': 'halal', 'title': 'Halal'}]",POINT (-73.92916 40.68474000000001),-73.92916,40.68474000000001,"['235 Malcolm X Blvd', 'Brooklyn, NY 11233']",Brooklyn,NY,11233.0,1.0,5.0,18,0,0,0,0,halal
282,WekK6vHrQZ-81CijH2sGiw,Middle Eastern Halal Food,middle-eastern-halal-food-brooklyn-5,Halal,"[{'alias': 'halal', 'title': 'Halal'}, {'alias': 'mideastern', 'title': 'Middle Eastern'}, {'alias': 'foodtrucks', 'title': 'Food Trucks'}]",POINT (-74.02619406580921 40.6212580747582),-74.02619406580921,40.6212580747582,"['8601 5th Ave', 'Brooklyn, NY 11209']",Brooklyn,NY,11209.0,1.0,4.0,128,0,0,0,0,halal
283,7lbqFvQX5cQWZkYQWYHonQ,Kebab House,kebab-house-newark,Halal,"[{'alias': 'halal', 'title': 'Halal'}, {'alias': 'kebab', 'title': 'Kebab'}]",POINT (-74.1753768920898 40.73577117919921),-74.1753768920898,40.73577117919921,"['260 Washington St', 'Newark, NJ 07102']",Newark,NJ,7102.0,1.0,4.5,23,0,1,1,0,halal
284,awRxWGb5C77OYCa-g32fUg,Ruzana,ruzana-brooklyn,Halal,"[{'alias': 'kebab', 'title': 'Kebab'}, {'alias': 'halal', 'title': 'Halal'}, {'alias': 'mideastern', 'title': 'Middle Eastern'}]",POINT (-74.0260156989098 40.62217217708761),-74.0260156989098,40.622172177087606,"['486 85th St', 'Brooklyn, NY 11209']",Brooklyn,NY,11209.0,1.0,4.5,98,0,1,1,0,halal
285,zvy4KOv2afqUSGin54_xxg,Darna Falafel,darna-falafel-brooklyn,Halal,"[{'alias': 'falafel', 'title': 'Falafel'}, {'alias': 'mideastern', 'title': 'Middle Eastern'}, {'alias': 'halal', 'title': 'Halal'}]",POINT (-73.99381778769691 40.6870474589747),-73.99381778769691,40.6870474589747,"['200 Court St', 'Brooklyn, NY 11201']",Brooklyn,NY,11201.0,1.0,4.0,190,0,1,1,0,halal
286,GCic7_NfVsOcKioOOL8t1Q,House of Platters,house-of-platters-haledon,Halal,"[{'alias': 'falafel', 'title': 'Falafel'}, {'alias': 'halal', 'title': 'Halal'}, {'alias': 'burgers', 'title': 'Burgers'}]",POINT (-74.18482 40.93892),-74.18482,40.93892,"['466 Belmont Ave', 'Haledon, NJ 07508']",Haledon,NJ,7508.0,1.0,4.5,104,0,0,0,0,halal
287,BclqCzL-86PVFTKMPjjymQ,Zaiqa Halal Food,zaiqa-halal-food-brooklyn,Halal,"[{'alias': 'halal', 'title': 'Halal'}]",POINT (-73.94874585031471 40.6320029333967),-73.94874585031471,40.6320029333967,"['Campus Rd & Hillel Pl', 'Brooklyn, NY 11210']",Brooklyn,NY,11210.0,1.0,4.0,14,0,0,0,0,halal
